{"type":"FeatureCollection","features":[{"type":"Feature","geometry":{"type":"Point","coordinates":[151.20732,-33.86785]},"properties":{"name":"Sydney","feature_code":"PPLA","population":4627345}},{"type":"Feature","geometry":{"type":"Point","coordinates":[144.96332,-37.814]},"properties":{"name":"Melbourne","feature_code":"PPLA","population":4246375}},{"type":"Feature","geometry":{"type":"Point","coordinates":[153.02809,-27.46794]},"properties":{"name":"Brisbane","feature_code":"PPLA","population":2189878}},{"type":"Feature","geometry":{"type":"Point","coordinates":[115.8614,-31.95224]},"properties":{"name":"Perth","feature_code":"PPLA","population":1896548}},{"type":"Feature","geometry":{"type":"Point","coordinates":[138.59863,-34.92866]},"properties":{"name":"Adelaide","feature_code":"PPLA","population":1225235}},{"type":"Feature","geometry":{"type":"Point","coordinates":[153.43088,-28.00029]},"properties":{"name":"Gold Coast","feature_code":"PPL","population":591473}},{"type":"Feature","geometry":{"type":"Point","coordinates":[151.77647,-32.92715]},"properties":{"name":"Newcastle","feature_code":"PPL","population":308308}},{"type":"Feature","geometry":{"type":"Point","coordinates":[150.89345,-34.424]},"properties":{"name":"Wollongong","feature_code":"PPL","population":292190}},{"type":"Feature","geometry":{"type":"Point","coordinates":[153.10944,-27.63917]},"properties":{"name":"Logan City","feature_code":"PPL","population":282673}},{"type":"Feature","geometry":{"type":"Point","coordinates":[144.36069,-38.14711]},"properties":{"name":"Geelong","feature_code":"PPL","population":226034}},{"type":"Feature","geometry":{"type":"Point","coordinates":[147.32941,-42.87936]},"properties":{"name":"Hobart","feature_code":"PPLA","population":216656}},{"type":"Feature","geometry":{"type":"Point","coordinates":[146.8057,-19.26639]},"properties":{"name":"Townsville","feature_code":"PPL","population":196219}},{"type":"Feature","geometry":{"type":"Point","coordinates":[145.76625,-16.92304]},"properties":{"name":"Cairns","feature_code":"PPL","population":153075}},{"type":"Feature","geometry":{"type":"Point","coordinates":[151.95386,-27.56056]},"properties":{"name":"Toowoomba","feature_code":"PPL","population":131258}},{"type":"Feature","geometry":{"type":"Point","coordinates":[130.84185,-12.46113]},"properties":{"name":"Darwin","feature_code":"PPLA","population":129062}},{"type":"Feature","geometry":{"type":"Point","coordinates":[115.72978,-32.27682]},"properties":{"name":"Rockingham","feature_code":"PPL","population":108022}},{"type":"Feature","geometry":{"type":"Point","coordinates":[147.13467,-41.43876]},"properties":{"name":"Launceston","feature_code":"PPL","population":106153}},{"type":"Feature","geometry":{"type":"Point","coordinates":[144.28024,-36.75818]},"properties":{"name":"Bendigo","feature_code":"PPL","population":100617}},{"type":"Feature","geometry":{"type":"Point","coordinates":[143.84957,-37.56622]},"properties":{"name":"Ballarat","feature_code":"PPL","population":97937}},{"type":"Feature","geometry":{"type":"Point","coordinates":[115.7217,-32.5269]},"properties":{"name":"Mandurah","feature_code":"PPL","population":83294}},{"type":"Feature","geometry":{"type":"Point","coordinates":[149.16554,-21.15345]},"properties":{"name":"Mackay","feature_code":"PPL","population":74219}},{"type":"Feature","geometry":{"type":"Point","coordinates":[152.3479,-24.86621]},"properties":{"name":"Bundaberg","feature_code":"PPL","population":70826}},{"type":"Feature","geometry":{"type":"Point","coordinates":[115.64137,-33.32711]},"properties":{"name":"Bunbury","feature_code":"PPL","population":68248}},{"type":"Feature","geometry":{"type":"Point","coordinates":[151.5574,-32.73308]},"properties":{"name":"Maitland","feature_code":"PPL","population":67132}},{"type":"Feature","geometry":{"type":"Point","coordinates":[116.0093,-32.14607]},"properties":{"name":"Armadale","feature_code":"PPL","population":62296}},{"type":"Feature","geometry":{"type":"Point","coordinates":[150.50595,-23.38032]},"properties":{"name":"Rockhampton","feature_code":"PPL","population":61724}},{"type":"Feature","geometry":{"type":"Point","coordinates":[138.70735,-34.91118]},"properties":{"name":"Adelaide Hills","feature_code":"PPL","population":60394}},{"type":"Feature","geometry":{"type":"Point","coordinates":[150.92905,-31.09048]},"properties":{"name":"Tamworth","feature_code":"PPL","population":47597}},{"type":"Feature","geometry":{"type":"Point","coordinates":[147.35374,-35.12577]},"properties":{"name":"Wagga Wagga","feature_code":"PPL","population":46913}},{"type":"Feature","geometry":{"type":"Point","coordinates":[146.92394,-36.07494]},"properties":{"name":"Albury","feature_code":"PPL","population":45627}},{"type":"Feature","geometry":{"type":"Point","coordinates":[152.90894,-31.43084]},"properties":{"name":"Port Macquarie","feature_code":"PPL","population":41491}},{"type":"Feature","geometry":{"type":"Point","coordinates":[149.232,-35.35493]},"properties":{"name":"Queanbeyan","feature_code":"PPL","population":40661}},{"type":"Feature","geometry":{"type":"Point","coordinates":[145.28333,-38.1]},"properties":{"name":"Cranbourne","feature_code":"PPL","population":39419}},{"type":"Feature","geometry":{"type":"Point","coordinates":[149.10018,-33.28397]},"properties":{"name":"Orange","feature_code":"PPL","population":39329}},{"type":"Feature","geometry":{"type":"Point","coordinates":[150.91667,-33.76667]},"properties":{"name":"Blacktown","feature_code":"PPL","population":39000}},{"type":"Feature","geometry":{"type":"Point","coordinates":[145.39867,-36.38047]},"properties":{"name":"Shepparton","feature_code":"PPL","population":38773}},{"type":"Feature","geometry":{"type":"Point","coordinates":[153.13771,-26.79709]},"properties":{"name":"Caloundra","feature_code":"PPL","population":38706}},{"type":"Feature","geometry":{"type":"Point","coordinates":[144.7003,-37.88264]},"properties":{"name":"Hoppers Crossing","feature_code":"PPL","population":38108}},{"type":"Feature","geometry":{"type":"Point","coordinates":[144.58543,-37.68339]},"properties":{"name":"Melton","feature_code":"PPL","population":35490}},{"type":"Feature","geometry":{"type":"Point","coordinates":[151,-33.73333]},"properties":{"name":"Castle Hill","feature_code":"PPL","population":35389}},{"type":"Feature","geometry":{"type":"Point","coordinates":[150.60036,-34.88422]},"properties":{"name":"Nowra","feature_code":"PPL","population":34479}},{"type":"Feature","geometry":{"type":"Point","coordinates":[145.13333,-38.13333]},"properties":{"name":"Frankston East","feature_code":"PPL","population":34457}},{"type":"Feature","geometry":{"type":"Point","coordinates":[142.48799,-38.38176]},"properties":{"name":"Warrnambool","feature_code":"PPL","population":33982}},{"type":"Feature","geometry":{"type":"Point","coordinates":[117.86595,-35.0031]},"properties":{"name":"Albany","feature_code":"PPL","population":33650}},{"type":"Feature","geometry":{"type":"Point","coordinates":[144.80049,-37.74496]},"properties":{"name":"St Albans","feature_code":"PPL","population":33511}},{"type":"Feature","geometry":{"type":"Point","coordinates":[149.5806,-33.41665]},"properties":{"name":"Bathurst","feature_code":"PPL","population":33110}},{"type":"Feature","geometry":{"type":"Point","coordinates":[148.60484,-32.24295]},"properties":{"name":"Dubbo","feature_code":"PPL","population":32327}},{"type":"Feature","geometry":{"type":"Point","coordinates":[146.88809,-36.12179]},"properties":{"name":"Wodonga","feature_code":"PPL","population":31605}},{"type":"Feature","geometry":{"type":"Point","coordinates":[121.4742,-30.74614]},"properties":{"name":"Kalgoorlie","feature_code":"PPL","population":31107}},{"type":"Feature","geometry":{"type":"Point","coordinates":[151.25635,-23.84761]},"properties":{"name":"Gladstone","feature_code":"PPL","population":30489}},{"type":"Feature","geometry":{"type":"Point","coordinates":[115.78128,-32.23013]},"properties":{"name":"Kwinana","feature_code":"PPL","population":30433}},{"type":"Feature","geometry":{"type":"Point","coordinates":[153.2773,-28.81354]},"properties":{"name":"Lismore","feature_code":"PPL","population":30086}},{"type":"Feature","geometry":{"type":"Point","coordinates":[142.16251,-34.18551]},"properties":{"name":"Mildura","feature_code":"PPL","population":30016}},{"type":"Feature","geometry":{"type":"Point","coordinates":[144.72607,-37.57742]},"properties":{"name":"Sunbury","feature_code":"PPL","population":29925}},{"type":"Feature","geometry":{"type":"Point","coordinates":[153.39796,-27.96724]},"properties":{"name":"Southport","feature_code":"PPL","population":28315}},{"type":"Feature","geometry":{"type":"Point","coordinates":[153.38571,-28.07751]},"properties":{"name":"Robina","feature_code":"PPL","population":27887}},{"type":"Feature","geometry":{"type":"Point","coordinates":[152.06623,-32.71314]},"properties":{"name":"Port Stephens","feature_code":"PPL","population":27531}},{"type":"Feature","geometry":{"type":"Point","coordinates":[153.53634,-28.21298]},"properties":{"name":"Banora Point","feature_code":"PPL","population":27368}},{"type":"Feature","geometry":{"type":"Point","coordinates":[114.61459,-28.77897]},"properties":{"name":"Geraldton","feature_code":"PPL","population":26872}},{"type":"Feature","geometry":{"type":"Point","coordinates":[151.23333,-33.95]},"properties":{"name":"Maroubra","feature_code":"PPL","population":26538}},{"type":"Feature","geometry":{"type":"Point","coordinates":[153.11351,-30.29626]},"properties":{"name":"Coffs Harbour","feature_code":"PPL","population":26353}},{"type":"Feature","geometry":{"type":"Point","coordinates":[151.23956,-33.83902]},"properties":{"name":"Mosman","feature_code":"PPL","population":26236}},{"type":"Feature","geometry":{"type":"Point","coordinates":[145.00176,-37.81819]},"properties":{"name":"Richmond","feature_code":"PPL","population":26121}},{"type":"Feature","geometry":{"type":"Point","coordinates":[151.24895,-33.91439]},"properties":{"name":"Randwick","feature_code":"PPL","population":25819}},{"type":"Feature","geometry":{"type":"Point","coordinates":[133.88362,-23.69748]},"properties":{"name":"Alice Springs","feature_code":"PPL","population":25186}},{"type":"Feature","geometry":{"type":"Point","coordinates":[150.88333,-33.73333]},"properties":{"name":"Quakers Hill","feature_code":"PPL","population":25017}},{"type":"Feature","geometry":{"type":"Point","coordinates":[130.9833,-12.48602]},"properties":{"name":"Palmerston","feature_code":"PPL","population":25000}},{"type":"Feature","geometry":{"type":"Point","coordinates":[115.76667,-32.05]},"properties":{"name":"Fremantle","feature_code":"PPL","population":24835}},{"type":"Feature","geometry":{"type":"Point","coordinates":[145.29539,-37.88461]},"properties":{"name":"Ferntree Gully","feature_code":"PPL","population":24724}},{"type":"Feature","geometry":{"type":"Point","coordinates":[145.05987,-37.9201]},"properties":{"name":"Bentleigh East","feature_code":"PPL","population":24520}},{"type":"Feature","geometry":{"type":"Point","coordinates":[115.91814,-32.05798]},"properties":{"name":"Canning Vale","feature_code":"PPL","population":23289}},{"type":"Feature","geometry":{"type":"Point","coordinates":[145.05489,-37.85995]},"properties":{"name":"Glen Iris","feature_code":"PPL","population":23270}},{"type":"Feature","geometry":{"type":"Point","coordinates":[140.77919,-37.8318]},"properties":{"name":"Mount Gambier","feature_code":"PPL","population":23209}},{"type":"Feature","geometry":{"type":"Point","coordinates":[151.15176,-33.90318]},"properties":{"name":"Marrickville","feature_code":"PPL","population":23161}},{"type":"Feature","geometry":{"type":"Point","coordinates":[151.01667,-33.83333]},"properties":{"name":"Granville","feature_code":"PPL","population":22889}},{"type":"Feature","geometry":{"type":"Point","coordinates":[139.49727,-20.72523]},"properties":{"name":"Mount Isa","feature_code":"PPL","population":22785}},{"type":"Feature","geometry":{"type":"Point","coordinates":[151.67123,-30.50828]},"properties":{"name":"Armidale","feature_code":"PPL","population":22673}},{"type":"Feature","geometry":{"type":"Point","coordinates":[138.51667,-35.13333]},"properties":{"name":"Morphett Vale","feature_code":"PPL","population":22602}},{"type":"Feature","geometry":{"type":"Point","coordinates":[145.03876,-38.21792]},"properties":{"name":"Mornington","feature_code":"PPL","population":22421}},{"type":"Feature","geometry":{"type":"Point","coordinates":[146.5415,-38.19528]},"properties":{"name":"Traralgon","feature_code":"PPL","population":21960}},{"type":"Feature","geometry":{"type":"Point","coordinates":[115.3455,-33.65249]},"properties":{"name":"Busselton","feature_code":"PPL","population":21898}},{"type":"Feature","geometry":{"type":"Point","coordinates":[152.70493,-25.54073]},"properties":{"name":"Maryborough","feature_code":"PPL","population":21501}},{"type":"Feature","geometry":{"type":"Point","coordinates":[152.9511,-27.08465]},"properties":{"name":"Caboolture","feature_code":"PPL","population":21478}},{"type":"Feature","geometry":{"type":"Point","coordinates":[151.04888,-33.78269]},"properties":{"name":"Carlingford","feature_code":"PPL","population":21364}},{"type":"Feature","geometry":{"type":"Point","coordinates":[150.93333,-33.9]},"properties":{"name":"Liverpool","feature_code":"PPL","population":21317}},{"type":"Feature","geometry":{"type":"Point","coordinates":[151.12051,-34.04726]},"properties":{"name":"Caringbah","feature_code":"PPL","population":21283}},{"type":"Feature","geometry":{"type":"Point","coordinates":[149.72086,-34.75155]},"properties":{"name":"Goulburn","feature_code":"PPL","population":20940}},{"type":"Feature","geometry":{"type":"Point","coordinates":[153.1,-27.63333]},"properties":{"name":"Woodridge","feature_code":"PPL","population":20650}},{"type":"Feature","geometry":{"type":"Point","coordinates":[152.78944,-27.61328]},"properties":{"name":"Booval","feature_code":"PPL","population":20540}},{"type":"Feature","geometry":{"type":"Point","coordinates":[138.5933,-34.88241]},"properties":{"name":"Prospect","feature_code":"PPL","population":20217}},{"type":"Feature","geometry":{"type":"Point","coordinates":[145.10302,-37.70462]},"properties":{"name":"Greensborough","feature_code":"PPL","population":20214}},{"type":"Feature","geometry":{"type":"Point","coordinates":[138.74902,-34.60251]},"properties":{"name":"Gawler","feature_code":"PPL","population":20006}},{"type":"Feature","geometry":{"type":"Point","coordinates":[145.90375,-41.05584]},"properties":{"name":"Burnie","feature_code":"PPL","population":19972}},{"type":"Feature","geometry":{"type":"Point","coordinates":[145.09386,-37.79086]},"properties":{"name":"Balwyn North","feature_code":"PPL","population":19968}},{"type":"Feature","geometry":{"type":"Point","coordinates":[144.96667,-37.76667]},"properties":{"name":"Brunswick","feature_code":"PPL","population":19867}},{"type":"Feature","geometry":{"type":"Point","coordinates":[151.09931,-33.70244]},"properties":{"name":"Hornsby","feature_code":"PPL","population":19863}},{"type":"Feature","geometry":{"type":"Point","coordinates":[151,-33.81667]},"properties":{"name":"City of Parramatta","feature_code":"PPL","population":19745}},{"type":"Feature","geometry":{"type":"Point","coordinates":[144.95,-37.6]},"properties":{"name":"Craigieburn","feature_code":"PPL","population":19728}},{"type":"Feature","geometry":{"type":"Point","coordinates":[145.0694,-37.84205]},"properties":{"name":"Camberwell","feature_code":"PPL","population":19637}},{"type":"Feature","geometry":{"type":"Point","coordinates":[145.04253,-37.87397]},"properties":{"name":"Malvern East","feature_code":"PPL","population":19593}},{"type":"Feature","geometry":{"type":"Point","coordinates":[139.27345,-35.11986]},"properties":{"name":"Murray Bridge","feature_code":"PPL","population":19577}},{"type":"Feature","geometry":{"type":"Point","coordinates":[144.75185,-36.14057]},"properties":{"name":"Echuca","feature_code":"PPL","population":19457}},{"type":"Feature","geometry":{"type":"Point","coordinates":[146.35152,-41.17695]},"properties":{"name":"Devonport","feature_code":"PPL","population":19317}},{"type":"Feature","geometry":{"type":"Point","coordinates":[150.6693,-33.79068]},"properties":{"name":"Glenmore Park","feature_code":"PPL","population":19200}},{"type":"Feature","geometry":{"type":"Point","coordinates":[151.08184,-33.77271]},"properties":{"name":"Epping","feature_code":"PPL","population":18969}},{"type":"Feature","geometry":{"type":"Point","coordinates":[153.42999,-28.00274]},"properties":{"name":"Surfers Paradise","feature_code":"PPL","population":18501}},{"type":"Feature","geometry":{"type":"Point","coordinates":[151.00348,-33.8178]},"properties":{"name":"Paramatta","feature_code":"PPL","population":18448}},{"type":"Feature","geometry":{"type":"Point","coordinates":[141.45998,-31.96173]},"properties":{"name":"Broken Hill","feature_code":"PPL","population":18430}},{"type":"Feature","geometry":{"type":"Point","coordinates":[152.94907,-27.10876]},"properties":{"name":"Morayfield","feature_code":"PPL","population":18020}},{"type":"Feature","geometry":{"type":"Point","coordinates":[151.01667,-34.06667]},"properties":{"name":"Engadine","feature_code":"PPL","population":17937}},{"type":"Feature","geometry":{"type":"Point","coordinates":[144.98099,-37.8676]},"properties":{"name":"Saint Kilda","feature_code":"PPL","population":17795}},{"type":"Feature","geometry":{"type":"Point","coordinates":[145.2,-37.91667]},"properties":{"name":"Mulgrave","feature_code":"PPL","population":17647}},{"type":"Feature","geometry":{"type":"Point","coordinates":[152.51715,-32.18136]},"properties":{"name":"Forster","feature_code":"PPL","population":17591}},{"type":"Feature","geometry":{"type":"Point","coordinates":[151.3,-33.75]},"properties":{"name":"Dee Why","feature_code":"PPL","population":17463}},{"type":"Feature","geometry":{"type":"Point","coordinates":[116.0054,-32.081]},"properties":{"name":"Gosnells","feature_code":"PPL","population":17277}},{"type":"Feature","geometry":{"type":"Point","coordinates":[151.12436,-33.79677]},"properties":{"name":"North Ryde","feature_code":"PPL","population":17208}},{"type":"Feature","geometry":{"type":"Point","coordinates":[146.32056,-36.35846]},"properties":{"name":"Wangaratta","feature_code":"PPL","population":16845}},{"type":"Feature","geometry":{"type":"Point","coordinates":[151.14961,-34.06251]},"properties":{"name":"Cronulla","feature_code":"PPL","population":16754}},{"type":"Feature","geometry":{"type":"Point","coordinates":[152.45387,-31.91099]},"properties":{"name":"Taree","feature_code":"PPL","population":16621}},{"type":"Feature","geometry":{"type":"Point","coordinates":[151.1,-33.95]},"properties":{"name":"Earlwood","feature_code":"PPL","population":16564}},{"type":"Feature","geometry":{"type":"Point","coordinates":[153.05,-27.58333]},"properties":{"name":"Sunnybank","feature_code":"PPL","population":16442}},{"type":"Feature","geometry":{"type":"Point","coordinates":[152.92627,-29.7076]},"properties":{"name":"South Grafton","feature_code":"PPL","population":16399}},{"type":"Feature","geometry":{"type":"Point","coordinates":[151.35623,-32.83211]},"properties":{"name":"Cessnock","feature_code":"PPL","population":16393}},{"type":"Feature","geometry":{"type":"Point","coordinates":[153.33633,-27.98941]},"properties":{"name":"Nerang","feature_code":"PPL","population":16256}},{"type":"Feature","geometry":{"type":"Point","coordinates":[153.02631,-27.19354]},"properties":{"name":"Deception Bay","feature_code":"PPL","population":16090}},{"type":"Feature","geometry":{"type":"Point","coordinates":[146.26099,-38.17828]},"properties":{"name":"Moe","feature_code":"PPL","population":15582}},{"type":"Feature","geometry":{"type":"Point","coordinates":[146.05093,-34.28853]},"properties":{"name":"Griffith","feature_code":"PPL","population":15455}},{"type":"Feature","geometry":{"type":"Point","coordinates":[153.03097,-27.3171]},"properties":{"name":"Bracken Ridge","feature_code":"PPL","population":15355}},{"type":"Feature","geometry":{"type":"Point","coordinates":[153.05705,-26.68443]},"properties":{"name":"Buderim","feature_code":"PPL","population":15228}},{"type":"Feature","geometry":{"type":"Point","coordinates":[145.01884,-37.90141]},"properties":{"name":"Brighton East","feature_code":"PPL","population":15167}},{"type":"Feature","geometry":{"type":"Point","coordinates":[153.10236,-27.50578]},"properties":{"name":"Carindale","feature_code":"PPL","population":15135}},{"type":"Feature","geometry":{"type":"Point","coordinates":[145.05713,-37.88867]},"properties":{"name":"Carnegie","feature_code":"PPL","population":15084}},{"type":"Feature","geometry":{"type":"Point","coordinates":[118.61059,-20.31215]},"properties":{"name":"Port Hedland","feature_code":"PPL","population":15044}},{"type":"Feature","geometry":{"type":"Point","coordinates":[151.08333,-33.91667]},"properties":{"name":"Lakemba","feature_code":"PPL","population":14468}},{"type":"Feature","geometry":{"type":"Point","coordinates":[147.30351,-42.97638]},"properties":{"name":"Kingston","feature_code":"PPL","population":14371}},{"type":"Feature","geometry":{"type":"Point","coordinates":[142.19981,-36.71131]},"properties":{"name":"Horsham","feature_code":"PPL","population":14285}},{"type":"Feature","geometry":{"type":"Point","coordinates":[145.03584,-37.9184]},"properties":{"name":"Bentleigh","feature_code":"PPL","population":14271}},{"type":"Feature","geometry":{"type":"Point","coordinates":[153.56541,-28.86414]},"properties":{"name":"Ballina","feature_code":"PPL","population":14242}},{"type":"Feature","geometry":{"type":"Point","coordinates":[151.22749,-33.92399]},"properties":{"name":"Kingsford","feature_code":"PPL","population":14232}},{"type":"Feature","geometry":{"type":"Point","coordinates":[151.0397,-33.86436]},"properties":{"name":"Lidcombe","feature_code":"PPL","population":14161}},{"type":"Feature","geometry":{"type":"Point","coordinates":[145.02262,-37.87255]},"properties":{"name":"Caulfield North","feature_code":"PPL","population":14034}},{"type":"Feature","geometry":{"type":"Point","coordinates":[151.28826,-33.79798]},"properties":{"name":"Manly","feature_code":"PPL","population":13949}},{"type":"Feature","geometry":{"type":"Point","coordinates":[150.86667,-34]},"properties":{"name":"Ingleburn","feature_code":"PPL","population":13902}},{"type":"Feature","geometry":{"type":"Point","coordinates":[144.98305,-37.8817]},"properties":{"name":"Elwood","feature_code":"PPL","population":13785}},{"type":"Feature","geometry":{"type":"Point","coordinates":[153.26667,-27.53333]},"properties":{"name":"Cleveland","feature_code":"PPL","population":13776}},{"type":"Feature","geometry":{"type":"Point","coordinates":[153.31172,-27.58329]},"properties":{"name":"Victoria Point","feature_code":"PPL","population":13755}},{"type":"Feature","geometry":{"type":"Point","coordinates":[151.16603,-32.56742]},"properties":{"name":"Singleton","feature_code":"PPL","population":13665}},{"type":"Feature","geometry":{"type":"Point","coordinates":[153.15942,-27.08367]},"properties":{"name":"Bongaree","feature_code":"PPL","population":13649}},{"type":"Feature","geometry":{"type":"Point","coordinates":[151.75,-32.75]},"properties":{"name":"Raymond Terrace","feature_code":"PPL","population":13606}},{"type":"Feature","geometry":{"type":"Point","coordinates":[150.81667,-33.76667]},"properties":{"name":"Mount Druitt","feature_code":"PPL","population":13582}},{"type":"Feature","geometry":{"type":"Point","coordinates":[144.43829,-37.67268]},"properties":{"name":"Bacchus Marsh","feature_code":"PPL","population":13575}},{"type":"Feature","geometry":{"type":"Point","coordinates":[146.39499,-38.23476]},"properties":{"name":"Morwell","feature_code":"PPL","population":13399}},{"type":"Feature","geometry":{"type":"Point","coordinates":[144.94228,-37.83961]},"properties":{"name":"Port Melbourne","feature_code":"PPL","population":13293}},{"type":"Feature","geometry":{"type":"Point","coordinates":[150.74406,-23.12683]},"properties":{"name":"Yeppoon","feature_code":"PPL","population":13285}},{"type":"Feature","geometry":{"type":"Point","coordinates":[137.77281,-32.49597]},"properties":{"name":"Port Augusta","feature_code":"PPL","population":13257}},{"type":"Feature","geometry":{"type":"Point","coordinates":[138.01746,-33.19176]},"properties":{"name":"Port Pirie","feature_code":"PPL","population":13206}},{"type":"Feature","geometry":{"type":"Point","coordinates":[147.06802,-38.11095]},"properties":{"name":"Sale","feature_code":"PPL","population":13186}},{"type":"Feature","geometry":{"type":"Point","coordinates":[151.25522,-33.9205]},"properties":{"name":"Coogee","feature_code":"PPL","population":13179}},{"type":"Feature","geometry":{"type":"Point","coordinates":[145.0464,-37.82484]},"properties":{"name":"Hawthorn East","feature_code":"PPL","population":13133}},{"type":"Feature","geometry":{"type":"Point","coordinates":[145.00957,-37.84077]},"properties":{"name":"Toorak","feature_code":"PPL","population":13127}},{"type":"Feature","geometry":{"type":"Point","coordinates":[145.10038,-37.82524]},"properties":{"name":"Surrey Hills","feature_code":"PPL","population":13105}},{"type":"Feature","geometry":{"type":"Point","coordinates":[135.87442,-34.72625]},"properties":{"name":"Port Lincoln","feature_code":"PPL","population":13044}},{"type":"Feature","geometry":{"type":"Point","coordinates":[150.86667,-33.76667]},"properties":{"name":"Doonside","feature_code":"PPL","population":13031}},{"type":"Feature","geometry":{"type":"Point","coordinates":[151.10381,-33.84722]},"properties":{"name":"Concord","feature_code":"PPL","population":13008}},{"type":"Feature","geometry":{"type":"Point","coordinates":[151.10005,-34.03857]},"properties":{"name":"Miranda","feature_code":"PPL","population":12903}},{"type":"Feature","geometry":{"type":"Point","coordinates":[142.21778,-10.585]},"properties":{"name":"Port Kennedy","feature_code":"PPL","population":12816}},{"type":"Feature","geometry":{"type":"Point","coordinates":[122.23922,-17.95538]},"properties":{"name":"Broome","feature_code":"PPL","population":12766}},{"type":"Feature","geometry":{"type":"Point","coordinates":[115.76431,-31.89578]},"properties":{"name":"Scarborough","feature_code":"PPL","population":12593}},{"type":"Feature","geometry":{"type":"Point","coordinates":[152.97432,-27.59715]},"properties":{"name":"Inala","feature_code":"PPL","population":12568}},{"type":"Feature","geometry":{"type":"Point","coordinates":[152.03438,-28.21901]},"properties":{"name":"Warwick","feature_code":"PPL","population":12562}},{"type":"Feature","geometry":{"type":"Point","coordinates":[115.86336,-31.99119]},"properties":{"name":"Como","feature_code":"PPL","population":12425}},{"type":"Feature","geometry":{"type":"Point","coordinates":[145.10553,-37.86659]},"properties":{"name":"Ashwood","feature_code":"PPL","population":12420}},{"type":"Feature","geometry":{"type":"Point","coordinates":[145.09519,-37.88766]},"properties":{"name":"Chadstone","feature_code":"PPL","population":12357}},{"type":"Feature","geometry":{"type":"Point","coordinates":[150.85219,-34.66828]},"properties":{"name":"Kiama","feature_code":"PPL","population":12286}},{"type":"Feature","geometry":{"type":"Point","coordinates":[151.1595,-33.86875]},"properties":{"name":"Leichhardt","feature_code":"PPL","population":12248}},{"type":"Feature","geometry":{"type":"Point","coordinates":[153.31667,-28.81667]},"properties":{"name":"Goonellabah","feature_code":"PPL","population":12137}},{"type":"Feature","geometry":{"type":"Point","coordinates":[137.75833,-32.48611]},"properties":{"name":"Port Augusta West","feature_code":"PPL","population":12133}},{"type":"Feature","geometry":{"type":"Point","coordinates":[144.35,-38.13333]},"properties":{"name":"Geelong West","feature_code":"PPL","population":12121}},{"type":"Feature","geometry":{"type":"Point","coordinates":[146.93333,-36.05]},"properties":{"name":"Lavington","feature_code":"PPL","population":12032}},{"type":"Feature","geometry":{"type":"Point","coordinates":[145.15326,-37.81901]},"properties":{"name":"Blackburn","feature_code":"PPL","population":11958}},{"type":"Feature","geometry":{"type":"Point","coordinates":[145.11901,-37.84978]},"properties":{"name":"Burwood","feature_code":"PPL","population":11886}},{"type":"Feature","geometry":{"type":"Point","coordinates":[145.0046,-37.93723]},"properties":{"name":"Hampton","feature_code":"PPL","population":11825}},{"type":"Feature","geometry":{"type":"Point","coordinates":[150.7,-33.75]},"properties":{"name":"Penrith","feature_code":"PPL","population":11813}},{"type":"Feature","geometry":{"type":"Point","coordinates":[153.4122,-28.0894]},"properties":{"name":"Varsity Lakes","feature_code":"PPL","population":11796}},{"type":"Feature","geometry":{"type":"Point","coordinates":[150.89009,-32.26118]},"properties":{"name":"Muswellbrook","feature_code":"PPL","population":11791}},{"type":"Feature","geometry":{"type":"Point","coordinates":[116.84629,-20.73765]},"properties":{"name":"Karratha","feature_code":"PPL","population":11728}},{"type":"Feature","geometry":{"type":"Point","coordinates":[151.66667,-32.95]},"properties":{"name":"Charlestown","feature_code":"PPL","population":11725}},{"type":"Feature","geometry":{"type":"Point","coordinates":[153.15812,-27.44527]},"properties":{"name":"Wynnum","feature_code":"PPL","population":11719}},{"type":"Feature","geometry":{"type":"Point","coordinates":[151.08333,-33.96667]},"properties":{"name":"Penshurst","feature_code":"PPL","population":11692}},{"type":"Feature","geometry":{"type":"Point","coordinates":[138.53333,-35.08333]},"properties":{"name":"Happy Valley","feature_code":"PPL","population":11531}},{"type":"Feature","geometry":{"type":"Point","coordinates":[115.7473,-32.34017]},"properties":{"name":"Warnbro","feature_code":"PPL","population":11421}},{"type":"Feature","geometry":{"type":"Point","coordinates":[147.35318,-42.913]},"properties":{"name":"Sandy Bay","feature_code":"PPL","population":11334}},{"type":"Feature","geometry":{"type":"Point","coordinates":[151.58333,-32.75]},"properties":{"name":"East Maitland","feature_code":"PPL","population":11310}},{"type":"Feature","geometry":{"type":"Point","coordinates":[115.86667,-31.98333]},"properties":{"name":"South Perth","feature_code":"PPL","population":11301}},{"type":"Feature","geometry":{"type":"Point","coordinates":[150.13631,-33.48247]},"properties":{"name":"Lithgow","feature_code":"PPL","population":11298}},{"type":"Feature","geometry":{"type":"Point","coordinates":[145.02734,-37.89673]},"properties":{"name":"Caulfield South","feature_code":"PPL","population":11113}},{"type":"Feature","geometry":{"type":"Point","coordinates":[152.66499,-26.18979]},"properties":{"name":"Gympie","feature_code":"PPL","population":11027}},{"type":"Feature","geometry":{"type":"Point","coordinates":[147.61041,-37.82289]},"properties":{"name":"Bairnsdale","feature_code":"PPL","population":11005}},{"type":"Feature","geometry":{"type":"Point","coordinates":[148.24754,-20.01367]},"properties":{"name":"Bowen","feature_code":"PPL","population":10983}},{"type":"Feature","geometry":{"type":"Point","coordinates":[115.8,-31.75]},"properties":{"name":"Wanneroo","feature_code":"PPL","population":10931}},{"type":"Feature","geometry":{"type":"Point","coordinates":[144.73631,-37.74124]},"properties":{"name":"Caroline Springs","feature_code":"PPL","population":10880}},{"type":"Feature","geometry":{"type":"Point","coordinates":[151.22241,-33.92019]},"properties":{"name":"Kensington","feature_code":"PPL","population":10847}},{"type":"Feature","geometry":{"type":"Point","coordinates":[151.13333,-33.83333]},"properties":{"name":"Gladesville","feature_code":"PPL","population":10835}},{"type":"Feature","geometry":{"type":"Point","coordinates":[151.01667,-34.01667]},"properties":{"name":"Menai","feature_code":"PPL","population":10781}},{"type":"Feature","geometry":{"type":"Point","coordinates":[153.25,-27.48333]},"properties":{"name":"Wellington Point","feature_code":"PPL","population":10713}},{"type":"Feature","geometry":{"type":"Point","coordinates":[153.03432,-26.39104]},"properties":{"name":"Tewantin","feature_code":"PPL","population":10660}},{"type":"Feature","geometry":{"type":"Point","coordinates":[145.12656,-37.80266]},"properties":{"name":"Box Hill North","feature_code":"PPL","population":10649}},{"type":"Feature","geometry":{"type":"Point","coordinates":[145.07339,-37.99423]},"properties":{"name":"Parkdale","feature_code":"PPL","population":10618}},{"type":"Feature","geometry":{"type":"Point","coordinates":[150.17542,-35.70658]},"properties":{"name":"Batemans Bay","feature_code":"PPL","population":10557}},{"type":"Feature","geometry":{"type":"Point","coordinates":[150.78333,-34.5]},"properties":{"name":"Dapto","feature_code":"PPL","population":10478}},{"type":"Feature","geometry":{"type":"Point","coordinates":[115.88333,-31.93333]},"properties":{"name":"Maylands","feature_code":"PPL","population":10447}},{"type":"Feature","geometry":{"type":"Point","coordinates":[151.15491,-33.85237]},"properties":{"name":"Drummoyne","feature_code":"PPL","population":10385}},{"type":"Feature","geometry":{"type":"Point","coordinates":[144.56883,-37.67852]},"properties":{"name":"Melton West","feature_code":"PPL","population":10381}},{"type":"Feature","geometry":{"type":"Point","coordinates":[151.26804,-33.89273]},"properties":{"name":"Bondi","feature_code":"PPL","population":10373}},{"type":"Feature","geometry":{"type":"Point","coordinates":[152.95941,-26.62613]},"properties":{"name":"Nambour","feature_code":"PPL","population":10221}},{"type":"Feature","geometry":{"type":"Point","coordinates":[115.74045,-31.80698]},"properties":{"name":"Hillarys","feature_code":"PPL","population":10160}},{"type":"Feature","geometry":{"type":"Point","coordinates":[145.15549,-37.83975]},"properties":{"name":"Blackburn South","feature_code":"PPL","population":10129}},{"type":"Feature","geometry":{"type":"Point","coordinates":[142.02202,-37.74425]},"properties":{"name":"Hamilton","feature_code":"PPL","population":10104}},{"type":"Feature","geometry":{"type":"Point","coordinates":[145.1342,-37.9827]},"properties":{"name":"Dingley Village","feature_code":"PPL","population":10072}},{"type":"Feature","geometry":{"type":"Point","coordinates":[147.27593,-42.83343]},"properties":{"name":"Glenorchy","feature_code":"PPL","population":10062}},{"type":"Feature","geometry":{"type":"Point","coordinates":[148.1759,-33.1372]},"properties":{"name":"Parkes","feature_code":"PPL","population":10026}},{"type":"Feature","geometry":{"type":"Point","coordinates":[115.8073,-31.98184]},"properties":{"name":"Nedlands","feature_code":"PPL","population":10020}},{"type":"Feature","geometry":{"type":"Point","coordinates":[148.04661,-22.00163]},"properties":{"name":"Moranbah","feature_code":"PPL","population":10000}},{"type":"Feature","geometry":{"type":"Point","coordinates":[144.91877,-37.68015]},"properties":{"name":"Broadmeadows","feature_code":"PPL","population":9985}},{"type":"Feature","geometry":{"type":"Point","coordinates":[144.94816,-37.80289]},"properties":{"name":"North Melbourne","feature_code":"PPL","population":9962}},{"type":"Feature","geometry":{"type":"Point","coordinates":[152.93336,-29.69012]},"properties":{"name":"Grafton","feature_code":"PPL","population":9955}},{"type":"Feature","geometry":{"type":"Point","coordinates":[152.98943,-27.4836]},"properties":{"name":"Toowong","feature_code":"PPL","population":9873}},{"type":"Feature","geometry":{"type":"Point","coordinates":[151.26205,-27.18169]},"properties":{"name":"Dalby","feature_code":"PPL","population":9847}},{"type":"Feature","geometry":{"type":"Point","coordinates":[153.10939,-27.20118]},"properties":{"name":"Scarborough","feature_code":"PPL","population":9837}},{"type":"Feature","geometry":{"type":"Point","coordinates":[138.51667,-34.9]},"properties":{"name":"Seaton","feature_code":"PPL","population":9704}},{"type":"Feature","geometry":{"type":"Point","coordinates":[151.11667,-33.88333]},"properties":{"name":"Croydon","feature_code":"PPL","population":9645}},{"type":"Feature","geometry":{"type":"Point","coordinates":[151.08333,-33.96667]},"properties":{"name":"Mortdale","feature_code":"PPL","population":9640}},{"type":"Feature","geometry":{"type":"Point","coordinates":[115.8,-31.93333]},"properties":{"name":"Wembley","feature_code":"PPL","population":9614}},{"type":"Feature","geometry":{"type":"Point","coordinates":[150.4204,-34.4775]},"properties":{"name":"Bowral","feature_code":"PPL","population":9605}},{"type":"Feature","geometry":{"type":"Point","coordinates":[146.18242,-41.16026]},"properties":{"name":"Ulverstone","feature_code":"PPL","population":9604}},{"type":"Feature","geometry":{"type":"Point","coordinates":[146.26354,-20.07671]},"properties":{"name":"Charters Towers","feature_code":"PPL","population":9573}},{"type":"Feature","geometry":{"type":"Point","coordinates":[153.04748,-28.85819]},"properties":{"name":"Casino","feature_code":"PPL","population":9539}},{"type":"Feature","geometry":{"type":"Point","coordinates":[152.98977,-27.30414]},"properties":{"name":"Strathpine","feature_code":"PPL","population":9532}},{"type":"Feature","geometry":{"type":"Point","coordinates":[151.07201,-33.98004]},"properties":{"name":"Oatley","feature_code":"PPL","population":9531}},{"type":"Feature","geometry":{"type":"Point","coordinates":[152.83093,-31.07898]},"properties":{"name":"Kempsey","feature_code":"PPL","population":9522}},{"type":"Feature","geometry":{"type":"Point","coordinates":[153.03333,-27.53333]},"properties":{"name":"Tarragindi","feature_code":"PPL","population":9439}},{"type":"Feature","geometry":{"type":"Point","coordinates":[116.0259,-32.12434]},"properties":{"name":"Kelmscott","feature_code":"PPL","population":9419}},{"type":"Feature","geometry":{"type":"Point","coordinates":[145.03944,-37.95167]},"properties":{"name":"Highett","feature_code":"PPL","population":9402}},{"type":"Feature","geometry":{"type":"Point","coordinates":[148.15784,-23.52296]},"properties":{"name":"Emerald","feature_code":"PPL","population":9398}},{"type":"Feature","geometry":{"type":"Point","coordinates":[151.15,-33.75]},"properties":{"name":"Pymble","feature_code":"PPL","population":9368}},{"type":"Feature","geometry":{"type":"Point","coordinates":[144.96434,-37.8228]},"properties":{"name":"Southbank","feature_code":"PPL","population":9364}},{"type":"Feature","geometry":{"type":"Point","coordinates":[145.16519,-37.83656]},"properties":{"name":"Forest Hill","feature_code":"PPL","population":9315}},{"type":"Feature","geometry":{"type":"Point","coordinates":[138.70288,-34.86979]},"properties":{"name":"Athelstone","feature_code":"PPL","population":9290}},{"type":"Feature","geometry":{"type":"Point","coordinates":[145.00434,-37.88441]},"properties":{"name":"Elsternwick","feature_code":"PPL","population":9286}},{"type":"Feature","geometry":{"type":"Point","coordinates":[143.5544,-35.33781]},"properties":{"name":"Swan Hill","feature_code":"PPL","population":9276}},{"type":"Feature","geometry":{"type":"Point","coordinates":[150.47247,-35.35906]},"properties":{"name":"Ulladulla","feature_code":"PPL","population":9250}},{"type":"Feature","geometry":{"type":"Point","coordinates":[151.32126,-33.65517]},"properties":{"name":"Newport","feature_code":"PPL","population":9227}},{"type":"Feature","geometry":{"type":"Point","coordinates":[115.98333,-32.05]},"properties":{"name":"Maddington","feature_code":"PPL","population":9137}},{"type":"Feature","geometry":{"type":"Point","coordinates":[145.93118,-38.15912]},"properties":{"name":"Warragul","feature_code":"PPL","population":9127}},{"type":"Feature","geometry":{"type":"Point","coordinates":[143.58488,-38.339]},"properties":{"name":"Colac","feature_code":"PPL","population":9089}},{"type":"Feature","geometry":{"type":"Point","coordinates":[152.85965,-27.64613]},"properties":{"name":"Redbank Plains","feature_code":"PPL","population":9083}},{"type":"Feature","geometry":{"type":"Point","coordinates":[147.40666,-19.57393]},"properties":{"name":"Ayr","feature_code":"PPL","population":9078}},{"type":"Feature","geometry":{"type":"Point","coordinates":[145.98425,-36.55113]},"properties":{"name":"Benalla","feature_code":"PPL","population":9020}},{"type":"Feature","geometry":{"type":"Point","coordinates":[153.31309,-27.89033]},"properties":{"name":"Oxenford","feature_code":"PPL","population":9007}},{"type":"Feature","geometry":{"type":"Point","coordinates":[138.73333,-34.78333]},"properties":{"name":"Golden Grove","feature_code":"PPL","population":8976}},{"type":"Feature","geometry":{"type":"Point","coordinates":[153.12899,-27.61183]},"properties":{"name":"Springwood","feature_code":"PPL","population":8952}},{"type":"Feature","geometry":{"type":"Point","coordinates":[151.58443,-33.03773]},"properties":{"name":"Rathmines","feature_code":"PPL","population":8944}},{"type":"Feature","geometry":{"type":"Point","coordinates":[115.77797,-32.10534]},"properties":{"name":"Spearwood","feature_code":"PPL","population":8941}},{"type":"Feature","geometry":{"type":"Point","coordinates":[145.09146,-37.92416]},"properties":{"name":"Oakleigh South","feature_code":"PPL","population":8933}},{"type":"Feature","geometry":{"type":"Point","coordinates":[141.60574,-38.35261]},"properties":{"name":"Portland","feature_code":"PPL","population":8841}},{"type":"Feature","geometry":{"type":"Point","coordinates":[144.96667,-37.83333]},"properties":{"name":"South Melbourne","feature_code":"PPL","population":8790}},{"type":"Feature","geometry":{"type":"Point","coordinates":[151.23333,-33.95]},"properties":{"name":"Matraville","feature_code":"PPL","population":8788}},{"type":"Feature","geometry":{"type":"Point","coordinates":[115.9437,-31.90906]},"properties":{"name":"Bassendean","feature_code":"PPL","population":8776}},{"type":"Feature","geometry":{"type":"Point","coordinates":[149.5871,-32.59426]},"properties":{"name":"Mudgee","feature_code":"PPL","population":8726}},{"type":"Feature","geometry":{"type":"Point","coordinates":[115.71504,-33.2792]},"properties":{"name":"Australind","feature_code":"PPL","population":8716}},{"type":"Feature","geometry":{"type":"Point","coordinates":[150.83333,-34.05]},"properties":{"name":"Leumeah","feature_code":"PPL","population":8662}},{"type":"Feature","geometry":{"type":"Point","coordinates":[145.12545,-37.81887]},"properties":{"name":"Box Hill","feature_code":"PPL","population":8616}},{"type":"Feature","geometry":{"type":"Point","coordinates":[153.05721,-27.29582]},"properties":{"name":"Brighton","feature_code":"PPL","population":8600}},{"type":"Feature","geometry":{"type":"Point","coordinates":[150.95,-33.9]},"properties":{"name":"Chipping Norton","feature_code":"PPL","population":8579}},{"type":"Feature","geometry":{"type":"Point","coordinates":[151.8373,-26.53994]},"properties":{"name":"Kingaroy","feature_code":"PPL","population":8573}},{"type":"Feature","geometry":{"type":"Point","coordinates":[151.11166,-29.77403]},"properties":{"name":"Inverell","feature_code":"PPL","population":8561}},{"type":"Feature","geometry":{"type":"Point","coordinates":[153.09123,-26.53333]},"properties":{"name":"Coolum Beach","feature_code":"PPL","population":8555}},{"type":"Feature","geometry":{"type":"Point","coordinates":[151.19347,-33.92598]},"properties":{"name":"Mascot","feature_code":"PPL","population":8518}},{"type":"Feature","geometry":{"type":"Point","coordinates":[138.63333,-34.83333]},"properties":{"name":"Ingle Farm","feature_code":"PPL","population":8474}},{"type":"Feature","geometry":{"type":"Point","coordinates":[145.02176,-37.8552]},"properties":{"name":"Armadale","feature_code":"PPL","population":8467}},{"type":"Feature","geometry":{"type":"Point","coordinates":[145.42323,-16.995]},"properties":{"name":"Mareeba","feature_code":"PPL","population":8403}},{"type":"Feature","geometry":{"type":"Point","coordinates":[138.86667,-35.06667]},"properties":{"name":"Mount Barker","feature_code":"PPL","population":8357}},{"type":"Feature","geometry":{"type":"Point","coordinates":[115.91667,-32]},"properties":{"name":"Bentley","feature_code":"PPL","population":8323}},{"type":"Feature","geometry":{"type":"Point","coordinates":[152.74755,-27.59753]},"properties":{"name":"Brassall","feature_code":"PPL","population":8320}},{"type":"Feature","geometry":{"type":"Point","coordinates":[152.95758,-27.15746]},"properties":{"name":"Burpengary","feature_code":"PPL","population":8280}},{"type":"Feature","geometry":{"type":"Point","coordinates":[146.03102,-17.52209]},"properties":{"name":"Innisfail","feature_code":"PPL","population":8262}},{"type":"Feature","geometry":{"type":"Point","coordinates":[115.75,-32]},"properties":{"name":"Mosman Park","feature_code":"PPL","population":8251}},{"type":"Feature","geometry":{"type":"Point","coordinates":[145.07112,-37.89023]},"properties":{"name":"Murrumbeena","feature_code":"PPL","population":8232}},{"type":"Feature","geometry":{"type":"Point","coordinates":[138.7,-34.83333]},"properties":{"name":"Hope Valley","feature_code":"PPL","population":8223}},{"type":"Feature","geometry":{"type":"Point","coordinates":[149.84157,-29.46278]},"properties":{"name":"Moree","feature_code":"PPL","population":8203}},{"type":"Feature","geometry":{"type":"Point","coordinates":[144.40617,-38.02388]},"properties":{"name":"Lara","feature_code":"PPL","population":8179}},{"type":"Feature","geometry":{"type":"Point","coordinates":[142.92728,-37.28542]},"properties":{"name":"Ararat","feature_code":"PPL","population":8076}},{"type":"Feature","geometry":{"type":"Point","coordinates":[143.83953,-37.58532]},"properties":{"name":"Sebastopol","feature_code":"PPL","population":8045}},{"type":"Feature","geometry":{"type":"Point","coordinates":[144.95958,-35.52741]},"properties":{"name":"Deniliquin","feature_code":"PPL","population":8024}},{"type":"Feature","geometry":{"type":"Point","coordinates":[150.81667,-34.06667]},"properties":{"name":"Campbelltown","feature_code":"PPL","population":8013}},{"type":"Feature","geometry":{"type":"Point","coordinates":[152.90535,-25.29214]},"properties":{"name":"Urangan","feature_code":"PPL","population":8007}},{"type":"Feature","geometry":{"type":"Point","coordinates":[115.67778,-31.68611]},"properties":{"name":"Quinns Rocks","feature_code":"PPL","population":7991}},{"type":"Feature","geometry":{"type":"Point","coordinates":[151.43333,-33.35]},"properties":{"name":"Berkeley Vale","feature_code":"PPL","population":7980}},{"type":"Feature","geometry":{"type":"Point","coordinates":[152.88874,-27.63038]},"properties":{"name":"Goodna","feature_code":"PPL","population":7939}},{"type":"Feature","geometry":{"type":"Point","coordinates":[116.05,-31.88333]},"properties":{"name":"Swan View","feature_code":"PPL","population":7896}},{"type":"Feature","geometry":{"type":"Point","coordinates":[121.88259,-33.86013]},"properties":{"name":"Esperance","feature_code":"PPL","population":7888}},{"type":"Feature","geometry":{"type":"Point","coordinates":[147.40554,-42.88728]},"properties":{"name":"Howrah","feature_code":"PPL","population":7888}},{"type":"Feature","geometry":{"type":"Point","coordinates":[151.28569,-33.77867]},"properties":{"name":"Freshwater","feature_code":"PPL","population":7872}},{"type":"Feature","geometry":{"type":"Point","coordinates":[151.20833,-33.76667]},"properties":{"name":"Forestville","feature_code":"PPL","population":7803}},{"type":"Feature","geometry":{"type":"Point","coordinates":[151.35,-33.4]},"properties":{"name":"Narara","feature_code":"PPL","population":7792}},{"type":"Feature","geometry":{"type":"Point","coordinates":[147.22784,-42.73719]},"properties":{"name":"Bridgewater","feature_code":"PPL","population":7790}},{"type":"Feature","geometry":{"type":"Point","coordinates":[151.18333,-33.8]},"properties":{"name":"Chatswood","feature_code":"PPL","population":7777}},{"type":"Feature","geometry":{"type":"Point","coordinates":[138.62154,-35.55042]},"properties":{"name":"Victor Harbor","feature_code":"PPL","population":7760}},{"type":"Feature","geometry":{"type":"Point","coordinates":[152.14398,-32.72043]},"properties":{"name":"Nelson Bay","feature_code":"PPL","population":7726}},{"type":"Feature","geometry":{"type":"Point","coordinates":[153.07835,-27.25341]},"properties":{"name":"Clontarf","feature_code":"PPL","population":7723}},{"type":"Feature","geometry":{"type":"Point","coordinates":[145.08476,-37.8247]},"properties":{"name":"Canterbury","feature_code":"PPL","population":7660}},{"type":"Feature","geometry":{"type":"Point","coordinates":[115.8268,-31.9485]},"properties":{"name":"Subiaco","feature_code":"PPL","population":7627}},{"type":"Feature","geometry":{"type":"Point","coordinates":[145.08333,-38]},"properties":{"name":"Mordialloc","feature_code":"PPL","population":7524}},{"type":"Feature","geometry":{"type":"Point","coordinates":[147.25,-42.78333]},"properties":{"name":"Claremont","feature_code":"PPL","population":7504}},{"type":"Feature","geometry":{"type":"Point","coordinates":[148.30107,-34.3135]},"properties":{"name":"Young","feature_code":"PPL","population":7501}},{"type":"Feature","geometry":{"type":"Point","coordinates":[152.97861,-27.49061]},"properties":{"name":"Taringa","feature_code":"PPL","population":7490}},{"type":"Feature","geometry":{"type":"Point","coordinates":[115.70503,-33.31664]},"properties":{"name":"Eaton","feature_code":"PPL","population":7481}},{"type":"Feature","geometry":{"type":"Point","coordinates":[153.04453,-27.35591]},"properties":{"name":"Zillmere","feature_code":"PPL","population":7467}},{"type":"Feature","geometry":{"type":"Point","coordinates":[151.19591,-33.94599]},"properties":{"name":"Botany","feature_code":"PPL","population":7455}},{"type":"Feature","geometry":{"type":"Point","coordinates":[144.5551,-38.1567]},"properties":{"name":"Clifton Springs","feature_code":"PPL","population":7413}},{"type":"Feature","geometry":{"type":"Point","coordinates":[150.85,-34.48333]},"properties":{"name":"Berkeley","feature_code":"PPL","population":7413}},{"type":"Feature","geometry":{"type":"Point","coordinates":[113.6594,-24.88073]},"properties":{"name":"Carnarvon","feature_code":"PPL","population":7392}},{"type":"Feature","geometry":{"type":"Point","coordinates":[145.12098,-37.83236]},"properties":{"name":"Box Hill South","feature_code":"PPL","population":7387}},{"type":"Feature","geometry":{"type":"Point","coordinates":[153.11925,-26.68164]},"properties":{"name":"Mooloolaba","feature_code":"PPL","population":7376}},{"type":"Feature","geometry":{"type":"Point","coordinates":[151.16667,-33.78333]},"properties":{"name":"Lindfield","feature_code":"PPL","population":7351}},{"type":"Feature","geometry":{"type":"Point","coordinates":[150.73333,-34.03333]},"properties":{"name":"Narellan","feature_code":"PPL","population":7350}},{"type":"Feature","geometry":{"type":"Point","coordinates":[145.11798,-38.02277]},"properties":{"name":"Aspendale Gardens","feature_code":"PPL","population":7319}},{"type":"Feature","geometry":{"type":"Point","coordinates":[115.7,-32.3]},"properties":{"name":"Safety Bay","feature_code":"PPL","population":7303}},{"type":"Feature","geometry":{"type":"Point","coordinates":[146.40483,-34.55105]},"properties":{"name":"Leeton","feature_code":"PPL","population":7299}},{"type":"Feature","geometry":{"type":"Point","coordinates":[148.87912,-23.58351]},"properties":{"name":"Blackwater","feature_code":"PPL","population":7250}},{"type":"Feature","geometry":{"type":"Point","coordinates":[145.07936,-37.86259]},"properties":{"name":"Ashburton","feature_code":"PPL","population":7173}},{"type":"Feature","geometry":{"type":"Point","coordinates":[115.7823,-31.97961]},"properties":{"name":"Claremont","feature_code":"PPL","population":7152}},{"type":"Feature","geometry":{"type":"Point","coordinates":[150.25838,-30.98065]},"properties":{"name":"Gunnedah","feature_code":"PPL","population":7148}},{"type":"Feature","geometry":{"type":"Point","coordinates":[145.51718,-37.65395]},"properties":{"name":"Healesville","feature_code":"PPL","population":7098}},{"type":"Feature","geometry":{"type":"Point","coordinates":[149.78371,-30.32612]},"properties":{"name":"Narrabri","feature_code":"PPL","population":7082}},{"type":"Feature","geometry":{"type":"Point","coordinates":[145.23102,-38.48349]},"properties":{"name":"Phillip Island","feature_code":"PPL","population":7071}},{"type":"Feature","geometry":{"type":"Point","coordinates":[151.51134,-33.25742]},"properties":{"name":"Gorokan","feature_code":"PPL","population":7066}},{"type":"Feature","geometry":{"type":"Point","coordinates":[115.76667,-32]},"properties":{"name":"Cottesloe","feature_code":"PPL","population":7065}},{"type":"Feature","geometry":{"type":"Point","coordinates":[143.73923,-37.04562]},"properties":{"name":"Maryborough","feature_code":"PPL","population":7046}},{"type":"Feature","geometry":{"type":"Point","coordinates":[145.16667,-38.21667]},"properties":{"name":"Somerville","feature_code":"PPL","population":7015}},{"type":"Feature","geometry":{"type":"Point","coordinates":[138.66667,-34.88333]},"properties":{"name":"Campbelltown","feature_code":"PPL","population":7005}},{"type":"Feature","geometry":{"type":"Point","coordinates":[151.11667,-33.68333]},"properties":{"name":"Mount Colah","feature_code":"PPL","population":6974}},{"type":"Feature","geometry":{"type":"Point","coordinates":[150.98333,-33.78333]},"properties":{"name":"Northmead","feature_code":"PPL","population":6968}},{"type":"Feature","geometry":{"type":"Point","coordinates":[145.47522,-17.26864]},"properties":{"name":"Atherton","feature_code":"PPL","population":6959}},{"type":"Feature","geometry":{"type":"Point","coordinates":[150.6,-33.75]},"properties":{"name":"Blaxland","feature_code":"PPL","population":6953}},{"type":"Feature","geometry":{"type":"Point","coordinates":[152.77519,-27.63472]},"properties":{"name":"Raceview","feature_code":"PPL","population":6896}},{"type":"Feature","geometry":{"type":"Point","coordinates":[153.39339,-28.32732]},"properties":{"name":"Murwillumbah","feature_code":"PPL","population":6868}},{"type":"Feature","geometry":{"type":"Point","coordinates":[151.07216,-33.73783]},"properties":{"name":"Pennant Hills","feature_code":"PPL","population":6830}},{"type":"Feature","geometry":{"type":"Point","coordinates":[145.1518,-37.80931]},"properties":{"name":"Blackburn North","feature_code":"PPL","population":6816}},{"type":"Feature","geometry":{"type":"Point","coordinates":[148.69662,-33.83554]},"properties":{"name":"Cowra","feature_code":"PPL","population":6795}},{"type":"Feature","geometry":{"type":"Point","coordinates":[153.61194,-28.64201]},"properties":{"name":"Byron Bay","feature_code":"PPL","population":6764}},{"type":"Feature","geometry":{"type":"Point","coordinates":[150.9,-33.96667]},"properties":{"name":"Glenfield","feature_code":"PPL","population":6758}},{"type":"Feature","geometry":{"type":"Point","coordinates":[150.37116,-34.55374]},"properties":{"name":"Moss Vale","feature_code":"PPL","population":6739}},{"type":"Feature","geometry":{"type":"Point","coordinates":[144.5969,-37.67587]},"properties":{"name":"Kurunjang","feature_code":"PPL","population":6728}},{"type":"Feature","geometry":{"type":"Point","coordinates":[150.44572,-34.45002]},"properties":{"name":"Mittagong","feature_code":"PPL","population":6717}},{"type":"Feature","geometry":{"type":"Point","coordinates":[115.7676,-32.03823]},"properties":{"name":"East Fremantle","feature_code":"PPL","population":6698}},{"type":"Feature","geometry":{"type":"Point","coordinates":[138.63333,-34.76667]},"properties":{"name":"Salisbury","feature_code":"PPL","population":6648}},{"type":"Feature","geometry":{"type":"Point","coordinates":[144.21684,-37.06709]},"properties":{"name":"Castlemaine","feature_code":"PPL","population":6604}},{"type":"Feature","geometry":{"type":"Point","coordinates":[150.61093,-34.84967]},"properties":{"name":"Bomaderry","feature_code":"PPL","population":6600}},{"type":"Feature","geometry":{"type":"Point","coordinates":[145.18333,-38.3]},"properties":{"name":"Hastings","feature_code":"PPL","population":6583}},{"type":"Feature","geometry":{"type":"Point","coordinates":[153.09809,-27.24761]},"properties":{"name":"Margate","feature_code":"PPL","population":6564}},{"type":"Feature","geometry":{"type":"Point","coordinates":[153.09028,-30.35262]},"properties":{"name":"Toormina","feature_code":"PPL","population":6551}},{"type":"Feature","geometry":{"type":"Point","coordinates":[153.19937,-27.96954]},"properties":{"name":"Tamborine Mountain","feature_code":"PPL","population":6535}},{"type":"Feature","geometry":{"type":"Point","coordinates":[150.90356,-34.37864]},"properties":{"name":"Corrimal","feature_code":"PPL","population":6534}},{"type":"Feature","geometry":{"type":"Point","coordinates":[148.22505,-35.30016]},"properties":{"name":"Tumut","feature_code":"PPL","population":6526}},{"type":"Feature","geometry":{"type":"Point","coordinates":[149.12598,-36.23469]},"properties":{"name":"Cooma","feature_code":"PPL","population":6520}},{"type":"Feature","geometry":{"type":"Point","coordinates":[152.27618,-27.55873]},"properties":{"name":"Gatton","feature_code":"PPL","population":6513}},{"type":"Feature","geometry":{"type":"Point","coordinates":[150.9154,-33.68207]},"properties":{"name":"Rouse Hill","feature_code":"PPL","population":6474}},{"type":"Feature","geometry":{"type":"Point","coordinates":[145.35,-37.81667]},"properties":{"name":"Montrose","feature_code":"PPL","population":6465}},{"type":"Feature","geometry":{"type":"Point","coordinates":[151.29736,-33.71277]},"properties":{"name":"Narrabeen","feature_code":"PPL","population":6436}},{"type":"Feature","geometry":{"type":"Point","coordinates":[145.05035,-36.31335]},"properties":{"name":"Kyabram","feature_code":"PPL","population":6396}},{"type":"Feature","geometry":{"type":"Point","coordinates":[144.99267,-37.8548]},"properties":{"name":"Windsor","feature_code":"PPL","population":6394}},{"type":"Feature","geometry":{"type":"Point","coordinates":[149.90961,-36.88901]},"properties":{"name":"Merimbula","feature_code":"PPL","population":6367}},{"type":"Feature","geometry":{"type":"Point","coordinates":[147.31694,-43.00311]},"properties":{"name":"Blackmans Bay","feature_code":"PPL","population":6341}},{"type":"Feature","geometry":{"type":"Point","coordinates":[116.15617,-33.36206]},"properties":{"name":"Collie","feature_code":"PPL","population":6336}},{"type":"Feature","geometry":{"type":"Point","coordinates":[115.83333,-32.01667]},"properties":{"name":"Applecross","feature_code":"PPL","population":6336}},{"type":"Feature","geometry":{"type":"Point","coordinates":[138.66896,-34.87361]},"properties":{"name":"Paradise","feature_code":"PPL","population":6327}},{"type":"Feature","geometry":{"type":"Point","coordinates":[150.51504,-24.3959]},"properties":{"name":"Biloela","feature_code":"PPL","population":6309}},{"type":"Feature","geometry":{"type":"Point","coordinates":[149.6,-33.41667]},"properties":{"name":"Kelso","feature_code":"PPL","population":6298}},{"type":"Feature","geometry":{"type":"Point","coordinates":[151.7385,-29.73485]},"properties":{"name":"Glen Innes","feature_code":"PPL","population":6283}},{"type":"Feature","geometry":{"type":"Point","coordinates":[145.05378,-37.79758]},"properties":{"name":"Kew East","feature_code":"PPL","population":6140}},{"type":"Feature","geometry":{"type":"Point","coordinates":[153.00884,-30.64318]},"properties":{"name":"Nambucca Heads","feature_code":"PPL","population":6137}},{"type":"Feature","geometry":{"type":"Point","coordinates":[152.98333,-30.63333]},"properties":{"name":"Nambucca","feature_code":"PPL","population":6137}},{"type":"Feature","geometry":{"type":"Point","coordinates":[151.13825,-33.89146]},"properties":{"name":"Summer Hill","feature_code":"PPL","population":6130}},{"type":"Feature","geometry":{"type":"Point","coordinates":[146.16248,-18.64552]},"properties":{"name":"Ingham","feature_code":"PPL","population":6127}},{"type":"Feature","geometry":{"type":"Point","coordinates":[144.46825,-38.19001]},"properties":{"name":"Leopold","feature_code":"PPL","population":6120}},{"type":"Feature","geometry":{"type":"Point","coordinates":[151.26556,-33.90198]},"properties":{"name":"Bronte","feature_code":"PPL","population":6120}},{"type":"Feature","geometry":{"type":"Point","coordinates":[115.9255,-31.9435]},"properties":{"name":"Belmont","feature_code":"PPL","population":6104}},{"type":"Feature","geometry":{"type":"Point","coordinates":[150.86667,-33.68333]},"properties":{"name":"Riverstone","feature_code":"PPL","population":6096}},{"type":"Feature","geometry":{"type":"Point","coordinates":[145.7,-16.88333]},"properties":{"name":"Redlynch","feature_code":"PPL","population":6069}},{"type":"Feature","geometry":{"type":"Point","coordinates":[151.2072,-33.839]},"properties":{"name":"North Sydney","feature_code":"PPL","population":6060}},{"type":"Feature","geometry":{"type":"Point","coordinates":[153.3,-27.9]},"properties":{"name":"Upper Coomera","feature_code":"PPL","population":6029}},{"type":"Feature","geometry":{"type":"Point","coordinates":[115.78333,-32.02778]},"properties":{"name":"Bicton","feature_code":"PPL","population":6017}},{"type":"Feature","geometry":{"type":"Point","coordinates":[153.57816,-28.25984]},"properties":{"name":"Kingscliff","feature_code":"PPL","population":6017}},{"type":"Feature","geometry":{"type":"Point","coordinates":[152.71667,-29.3]},"properties":{"name":"Gordon","feature_code":"PPL","population":5993}},{"type":"Feature","geometry":{"type":"Point","coordinates":[145.6,-38.6]},"properties":{"name":"North Wonthaggi","feature_code":"PPL","population":5985}},{"type":"Feature","geometry":{"type":"Point","coordinates":[138.48333,-35.28333]},"properties":{"name":"Aldinga","feature_code":"PPL","population":5984}},{"type":"Feature","geometry":{"type":"Point","coordinates":[153.15,-27.65]},"properties":{"name":"Slacks Creek","feature_code":"PPL","population":5965}},{"type":"Feature","geometry":{"type":"Point","coordinates":[147.30869,-42.85758]},"properties":{"name":"New Town","feature_code":"PPL","population":5870}},{"type":"Feature","geometry":{"type":"Point","coordinates":[151.63642,-32.9896]},"properties":{"name":"Eleebana","feature_code":"PPL","population":5859}},{"type":"Feature","geometry":{"type":"Point","coordinates":[116.67423,-31.64932]},"properties":{"name":"Northam","feature_code":"PPL","population":5855}},{"type":"Feature","geometry":{"type":"Point","coordinates":[151.01305,-34.0841]},"properties":{"name":"Heathcote","feature_code":"PPL","population":5851}},{"type":"Feature","geometry":{"type":"Point","coordinates":[147.38333,-35.16667]},"properties":{"name":"Lake Albert","feature_code":"PPL","population":5851}},{"type":"Feature","geometry":{"type":"Point","coordinates":[147.98103,-37.88115]},"properties":{"name":"Lakes Entrance","feature_code":"PPL","population":5849}},{"type":"Feature","geometry":{"type":"Point","coordinates":[132.26347,-14.46517]},"properties":{"name":"Katherine","feature_code":"PPL","population":5849}},{"type":"Feature","geometry":{"type":"Point","coordinates":[151.8676,-32.7415]},"properties":{"name":"Medowie","feature_code":"PPL","population":5841}},{"type":"Feature","geometry":{"type":"Point","coordinates":[150.98333,-33.83333]},"properties":{"name":"Merrylands","feature_code":"PPL","population":5803}},{"type":"Feature","geometry":{"type":"Point","coordinates":[145.01636,-37.97357]},"properties":{"name":"Black Rock","feature_code":"PPL","population":5796}},{"type":"Feature","geometry":{"type":"Point","coordinates":[142.78088,-37.05632]},"properties":{"name":"Stawell","feature_code":"PPL","population":5737}},{"type":"Feature","geometry":{"type":"Point","coordinates":[115.802,-32.02489]},"properties":{"name":"Attadale","feature_code":"PPL","population":5719}},{"type":"Feature","geometry":{"type":"Point","coordinates":[145.72617,-40.9897]},"properties":{"name":"Wynyard","feature_code":"PPL","population":5706}},{"type":"Feature","geometry":{"type":"Point","coordinates":[152.87886,-25.28496]},"properties":{"name":"Torquay","feature_code":"PPL","population":5693}},{"type":"Feature","geometry":{"type":"Point","coordinates":[128.74414,-15.77813]},"properties":{"name":"Kununurra","feature_code":"PPL","population":5679}},{"type":"Feature","geometry":{"type":"Point","coordinates":[147.36192,-42.84837]},"properties":{"name":"Lindisfarne","feature_code":"PPL","population":5678}},{"type":"Feature","geometry":{"type":"Point","coordinates":[140.7383,-36.95785]},"properties":{"name":"Naracoorte","feature_code":"PPL","population":5674}},{"type":"Feature","geometry":{"type":"Point","coordinates":[143.85082,-37.56206]},"properties":{"name":"Ballarat Central","feature_code":"PPL","population":5645}},{"type":"Feature","geometry":{"type":"Point","coordinates":[151.47908,-32.81933]},"properties":{"name":"Kurri Kurri","feature_code":"PPL","population":5644}},{"type":"Feature","geometry":{"type":"Point","coordinates":[150.3073,-28.5464]},"properties":{"name":"Goondiwindi","feature_code":"PPL","population":5629}},{"type":"Feature","geometry":{"type":"Point","coordinates":[145.10571,-37.89904]},"properties":{"name":"Oakleigh East","feature_code":"PPL","population":5623}},{"type":"Feature","geometry":{"type":"Point","coordinates":[151,-33.7]},"properties":{"name":"Glenhaven","feature_code":"PPL","population":5620}},{"type":"Feature","geometry":{"type":"Point","coordinates":[145.99972,-36.01923]},"properties":{"name":"Yarrawonga","feature_code":"PPL","population":5604}},{"type":"Feature","geometry":{"type":"Point","coordinates":[115.07391,-33.9536]},"properties":{"name":"Margaret River","feature_code":"PPL","population":5584}},{"type":"Feature","geometry":{"type":"Point","coordinates":[138.68333,-34.83333]},"properties":{"name":"Modbury","feature_code":"PPL","population":5570}},{"type":"Feature","geometry":{"type":"Point","coordinates":[150.75142,-33.59956]},"properties":{"name":"Richmond","feature_code":"PPL","population":5560}},{"type":"Feature","geometry":{"type":"Point","coordinates":[151.06065,-34.01643]},"properties":{"name":"Jannali","feature_code":"PPL","population":5556}},{"type":"Feature","geometry":{"type":"Point","coordinates":[140.34947,-37.59389]},"properties":{"name":"Millicent","feature_code":"PPL","population":5551}},{"type":"Feature","geometry":{"type":"Point","coordinates":[147.0587,-42.78261]},"properties":{"name":"New Norfolk","feature_code":"PPL","population":5526}},{"type":"Feature","geometry":{"type":"Point","coordinates":[150.99522,-34.17836]},"properties":{"name":"Helensburgh","feature_code":"PPL","population":5504}},{"type":"Feature","geometry":{"type":"Point","coordinates":[144.98333,-37.8]},"properties":{"name":"Collingwood","feature_code":"PPL","population":5500}},{"type":"Feature","geometry":{"type":"Point","coordinates":[148.78751,-26.56741]},"properties":{"name":"Roma","feature_code":"PPL","population":5496}},{"type":"Feature","geometry":{"type":"Point","coordinates":[153.04204,-27.42244]},"properties":{"name":"Wooloowin","feature_code":"PPL","population":5486}},{"type":"Feature","geometry":{"type":"Point","coordinates":[153.58333,-28.86667]},"properties":{"name":"East Ballina","feature_code":"PPL","population":5474}},{"type":"Feature","geometry":{"type":"Point","coordinates":[150.91347,-34.33834]},"properties":{"name":"Bulli","feature_code":"PPL","population":5455}},{"type":"Feature","geometry":{"type":"Point","coordinates":[138.53333,-34.9]},"properties":{"name":"Findon","feature_code":"PPL","population":5451}},{"type":"Feature","geometry":{"type":"Point","coordinates":[148.94508,-32.55588]},"properties":{"name":"Wellington","feature_code":"PPL","population":5428}},{"type":"Feature","geometry":{"type":"Point","coordinates":[148.5,-20.31667]},"properties":{"name":"Red Hill","feature_code":"PPL","population":5406}},{"type":"Feature","geometry":{"type":"Point","coordinates":[147.13127,-41.39714]},"properties":{"name":"Newnham","feature_code":"PPL","population":5389}},{"type":"Feature","geometry":{"type":"Point","coordinates":[152.86008,-27.61282]},"properties":{"name":"Collingwood Park","feature_code":"PPL","population":5305}},{"type":"Feature","geometry":{"type":"Point","coordinates":[151.36667,-33.38333]},"properties":{"name":"Lisarow","feature_code":"PPL","population":5285}},{"type":"Feature","geometry":{"type":"Point","coordinates":[151.29607,-33.70935]},"properties":{"name":"North Narrabeen","feature_code":"PPL","population":5280}},{"type":"Feature","geometry":{"type":"Point","coordinates":[151.00504,-33.65527]},"properties":{"name":"Kenthurst","feature_code":"PPL","population":5250}},{"type":"Feature","geometry":{"type":"Point","coordinates":[138.49719,-34.90075]},"properties":{"name":"Grange","feature_code":"PPL","population":5238}},{"type":"Feature","geometry":{"type":"Point","coordinates":[153.28743,-28.81933]},"properties":{"name":"East Lismore","feature_code":"PPL","population":5209}},{"type":"Feature","geometry":{"type":"Point","coordinates":[146.3858,-35.99962]},"properties":{"name":"Corowa","feature_code":"PPL","population":5178}},{"type":"Feature","geometry":{"type":"Point","coordinates":[121.4912,-30.78204]},"properties":{"name":"Boulder","feature_code":"PPL","population":5178}},{"type":"Feature","geometry":{"type":"Point","coordinates":[153.04444,-27.34265]},"properties":{"name":"Taigum","feature_code":"PPL","population":5164}},{"type":"Feature","geometry":{"type":"Point","coordinates":[152.81133,-27.60947]},"properties":{"name":"Bundamba","feature_code":"PPL","population":5159}},{"type":"Feature","geometry":{"type":"Point","coordinates":[115.96667,-32.03333]},"properties":{"name":"Kenwick","feature_code":"PPL","population":5150}},{"type":"Feature","geometry":{"type":"Point","coordinates":[150.61667,-33.76667]},"properties":{"name":"Glenbrook","feature_code":"PPL","population":5138}},{"type":"Feature","geometry":{"type":"Point","coordinates":[119.73553,-23.35644]},"properties":{"name":"Newman","feature_code":"PPL","population":5138}},{"type":"Feature","geometry":{"type":"Point","coordinates":[152.10846,-32.72014]},"properties":{"name":"Corlette","feature_code":"PPL","population":5115}},{"type":"Feature","geometry":{"type":"Point","coordinates":[151.48135,-33.35795]},"properties":{"name":"Long Jetty","feature_code":"PPL","population":5114}},{"type":"Feature","geometry":{"type":"Point","coordinates":[138.63562,-34.87928]},"properties":{"name":"Klemzig","feature_code":"PPL","population":5087}},{"type":"Feature","geometry":{"type":"Point","coordinates":[147.30228,-42.84617]},"properties":{"name":"Moonah","feature_code":"PPL","population":5084}},{"type":"Feature","geometry":{"type":"Point","coordinates":[144.99773,-37.86916]},"properties":{"name":"Balaclava","feature_code":"PPL","population":5035}},{"type":"Feature","geometry":{"type":"Point","coordinates":[138.99766,-34.46825]},"properties":{"name":"Nuriootpa","feature_code":"PPL","population":5031}},{"type":"Feature","geometry":{"type":"Point","coordinates":[131.11165,-12.55397]},"properties":{"name":"McMinns Lagoon","feature_code":"PPL","population":5025}},{"type":"Feature","geometry":{"type":"Point","coordinates":[145.10828,-37.80043]},"properties":{"name":"Mont Albert North","feature_code":"PPL","population":5008}},{"type":"Feature","geometry":{"type":"Point","coordinates":[152.77451,-27.65046]},"properties":{"name":"Flinders View","feature_code":"PPL","population":5005}},{"type":"Feature","geometry":{"type":"Point","coordinates":[151.01667,-33.88333]},"properties":{"name":"Regents Park","feature_code":"PPL","population":4985}},{"type":"Feature","geometry":{"type":"Point","coordinates":[151.07588,-34.00407]},"properties":{"name":"Oyster Bay","feature_code":"PPL","population":4981}},{"type":"Feature","geometry":{"type":"Point","coordinates":[151.38972,-33.43218]},"properties":{"name":"Erina","feature_code":"PPL","population":4968}},{"type":"Feature","geometry":{"type":"Point","coordinates":[148.24052,-32.23121]},"properties":{"name":"Narromine","feature_code":"PPL","population":4934}},{"type":"Feature","geometry":{"type":"Point","coordinates":[148.02838,-34.64095]},"properties":{"name":"Cootamundra","feature_code":"PPL","population":4931}},{"type":"Feature","geometry":{"type":"Point","coordinates":[153.06951,-27.32198]},"properties":{"name":"Sandgate","feature_code":"PPL","population":4911}},{"type":"Feature","geometry":{"type":"Point","coordinates":[152.92488,-27.66757]},"properties":{"name":"Springfield Lakes","feature_code":"PPL","population":4851}},{"type":"Feature","geometry":{"type":"Point","coordinates":[148.0076,-33.38436]},"properties":{"name":"Forbes","feature_code":"PPL","population":4838}},{"type":"Feature","geometry":{"type":"Point","coordinates":[116.73333,-28.18333]},"properties":{"name":"Melville","feature_code":"PPL","population":4822}},{"type":"Feature","geometry":{"type":"Point","coordinates":[153.5,-28.15]},"properties":{"name":"Tugun","feature_code":"PPL","population":4819}},{"type":"Feature","geometry":{"type":"Point","coordinates":[145.02288,-37.88251]},"properties":{"name":"Caulfield","feature_code":"PPL","population":4790}},{"type":"Feature","geometry":{"type":"Point","coordinates":[151.1,-33.73333]},"properties":{"name":"Normanhurst","feature_code":"PPL","population":4787}},{"type":"Feature","geometry":{"type":"Point","coordinates":[138.89247,-35.25979]},"properties":{"name":"Strathalbyn","feature_code":"PPL","population":4731}},{"type":"Feature","geometry":{"type":"Point","coordinates":[147.16667,-41.43333]},"properties":{"name":"Newstead","feature_code":"PPL","population":4719}},{"type":"Feature","geometry":{"type":"Point","coordinates":[151.93372,-28.65721]},"properties":{"name":"Stanthorpe","feature_code":"PPL","population":4695}},{"type":"Feature","geometry":{"type":"Point","coordinates":[151.2541,-33.9582]},"properties":{"name":"Malabar","feature_code":"PPL","population":4689}},{"type":"Feature","geometry":{"type":"Point","coordinates":[138.95982,-34.52336]},"properties":{"name":"Tanunda","feature_code":"PPL","population":4684}},{"type":"Feature","geometry":{"type":"Point","coordinates":[151.7,-32.91667]},"properties":{"name":"Lambton","feature_code":"PPL","population":4681}},{"type":"Feature","geometry":{"type":"Point","coordinates":[152.81667,-25.3]},"properties":{"name":"Urraween","feature_code":"PPL","population":4664}},{"type":"Feature","geometry":{"type":"Point","coordinates":[138.46667,-35.18333]},"properties":{"name":"Seaford","feature_code":"PPL","population":4654}},{"type":"Feature","geometry":{"type":"Point","coordinates":[144.75648,-36.1136]},"properties":{"name":"Moama","feature_code":"PPL","population":4642}},{"type":"Feature","geometry":{"type":"Point","coordinates":[149.84178,-36.67392]},"properties":{"name":"Bega","feature_code":"PPL","population":4537}},{"type":"Feature","geometry":{"type":"Point","coordinates":[144.76979,-37.86202]},"properties":{"name":"Laverton","feature_code":"PPL","population":4508}},{"type":"Feature","geometry":{"type":"Point","coordinates":[151.45409,-33.07622]},"properties":{"name":"Cooranbong","feature_code":"PPL","population":4480}},{"type":"Feature","geometry":{"type":"Point","coordinates":[153.03474,-27.45718]},"properties":{"name":"Fortitude Valley","feature_code":"PPL","population":4469}},{"type":"Feature","geometry":{"type":"Point","coordinates":[150.45839,-33.72446]},"properties":{"name":"Hazelbrook","feature_code":"PPL","population":4449}},{"type":"Feature","geometry":{"type":"Point","coordinates":[151.25882,-33.91214]},"properties":{"name":"Clovelly","feature_code":"PPL","population":4428}},{"type":"Feature","geometry":{"type":"Point","coordinates":[146.55096,-34.74752]},"properties":{"name":"Narrandera","feature_code":"PPL","population":4427}},{"type":"Feature","geometry":{"type":"Point","coordinates":[138.60255,-34.8526]},"properties":{"name":"Enfield","feature_code":"PPL","population":4389}},{"type":"Feature","geometry":{"type":"Point","coordinates":[150.33333,-33.71667]},"properties":{"name":"Leura","feature_code":"PPL","population":4384}},{"type":"Feature","geometry":{"type":"Point","coordinates":[138.63333,-35]},"properties":{"name":"Belair","feature_code":"PPL","population":4382}},{"type":"Feature","geometry":{"type":"Point","coordinates":[145.75,-16.95]},"properties":{"name":"Woree","feature_code":"PPL","population":4374}},{"type":"Feature","geometry":{"type":"Point","coordinates":[150.9012,-34.4818]},"properties":{"name":"Port Kembla","feature_code":"PPL","population":4368}},{"type":"Feature","geometry":{"type":"Point","coordinates":[150.96667,-33.98333]},"properties":{"name":"Holsworthy","feature_code":"PPL","population":4363}},{"type":"Feature","geometry":{"type":"Point","coordinates":[153.20067,-30.11058]},"properties":{"name":"Woolgoolga","feature_code":"PPL","population":4356}},{"type":"Feature","geometry":{"type":"Point","coordinates":[144.9879,-37.81667]},"properties":{"name":"East Melbourne","feature_code":"PPL","population":4330}},{"type":"Feature","geometry":{"type":"Point","coordinates":[140.59958,-34.28107]},"properties":{"name":"Berri","feature_code":"PPL","population":4330}},{"type":"Feature","geometry":{"type":"Point","coordinates":[147.3703,-42.87551]},"properties":{"name":"Bellerive","feature_code":"PPL","population":4316}},{"type":"Feature","geometry":{"type":"Point","coordinates":[115.7665,-32.11934]},"properties":{"name":"Coogee","feature_code":"PPL","population":4312}},{"type":"Feature","geometry":{"type":"Point","coordinates":[116.02764,-31.95187]},"properties":{"name":"Maida Vale","feature_code":"PPL","population":4298}},{"type":"Feature","geometry":{"type":"Point","coordinates":[116.7954,-20.74558]},"properties":{"name":"Nickol","feature_code":"PPL","population":4289}},{"type":"Feature","geometry":{"type":"Point","coordinates":[151.15091,-33.62078]},"properties":{"name":"Berowra","feature_code":"PPL","population":4284}},{"type":"Feature","geometry":{"type":"Point","coordinates":[150.61168,-34.16995]},"properties":{"name":"Picton","feature_code":"PPL","population":4284}},{"type":"Feature","geometry":{"type":"Point","coordinates":[152.76146,-27.60286]},"properties":{"name":"North Ipswich","feature_code":"PPL","population":4273}},{"type":"Feature","geometry":{"type":"Point","coordinates":[146.82606,-41.10559]},"properties":{"name":"George Town","feature_code":"PPL","population":4268}},{"type":"Feature","geometry":{"type":"Point","coordinates":[147.11887,-41.60512]},"properties":{"name":"Longford","feature_code":"PPL","population":4267}},{"type":"Feature","geometry":{"type":"Point","coordinates":[150.7,-34.05]},"properties":{"name":"Elderslie","feature_code":"PPL","population":4252}},{"type":"Feature","geometry":{"type":"Point","coordinates":[116.14564,-34.24122]},"properties":{"name":"Manjimup","feature_code":"PPL","population":4240}},{"type":"Feature","geometry":{"type":"Point","coordinates":[117.17763,-32.93282]},"properties":{"name":"Narrogin","feature_code":"PPL","population":4238}},{"type":"Feature","geometry":{"type":"Point","coordinates":[145.02863,-37.93695]},"properties":{"name":"Hampton East","feature_code":"PPL","population":4233}},{"type":"Feature","geometry":{"type":"Point","coordinates":[115.7998,-31.99517]},"properties":{"name":"Dalkeith","feature_code":"PPL","population":4206}},{"type":"Feature","geometry":{"type":"Point","coordinates":[151.3383,-33.51301]},"properties":{"name":"Ettalong","feature_code":"PPL","population":4205}},{"type":"Feature","geometry":{"type":"Point","coordinates":[151.33044,-33.51058]},"properties":{"name":"Ettalong Beach","feature_code":"PPL","population":4205}},{"type":"Feature","geometry":{"type":"Point","coordinates":[145.12498,-40.84587]},"properties":{"name":"Smithton","feature_code":"PPL","population":4202}},{"type":"Feature","geometry":{"type":"Point","coordinates":[145.84183,-31.49873]},"properties":{"name":"Cobar","feature_code":"PPL","population":4199}},{"type":"Feature","geometry":{"type":"Point","coordinates":[151.4339,-33.46818]},"properties":{"name":"Avoca Beach","feature_code":"PPL","population":4196}},{"type":"Feature","geometry":{"type":"Point","coordinates":[115.79722,-31.95833]},"properties":{"name":"Shenton Park","feature_code":"PPL","population":4193}},{"type":"Feature","geometry":{"type":"Point","coordinates":[150.28576,-33.63375]},"properties":{"name":"Blackheath","feature_code":"PPL","population":4178}},{"type":"Feature","geometry":{"type":"Point","coordinates":[151.08333,-33.86667]},"properties":{"name":"Homebush","feature_code":"PPL","population":4171}},{"type":"Feature","geometry":{"type":"Point","coordinates":[150.85516,-34.58333]},"properties":{"name":"Flinders","feature_code":"PPL","population":4150}},{"type":"Feature","geometry":{"type":"Point","coordinates":[152.58807,-31.9694]},"properties":{"name":"Old Bar","feature_code":"PPL","population":4098}},{"type":"Feature","geometry":{"type":"Point","coordinates":[115.95,-32.01667]},"properties":{"name":"Cannington","feature_code":"PPL","population":4092}},{"type":"Feature","geometry":{"type":"Point","coordinates":[145.04605,-37.88949]},"properties":{"name":"Glen Huntly","feature_code":"PPL","population":4085}},{"type":"Feature","geometry":{"type":"Point","coordinates":[150.943,-33.799]},"properties":{"name":"Girraween","feature_code":"PPL","population":4059}},{"type":"Feature","geometry":{"type":"Point","coordinates":[136.89546,-30.56305]},"properties":{"name":"Roxby Downs","feature_code":"PPL","population":4055}},{"type":"Feature","geometry":{"type":"Point","coordinates":[146.08846,-37.052]},"properties":{"name":"Mansfield","feature_code":"PPL","population":4052}},{"type":"Feature","geometry":{"type":"Point","coordinates":[146.07318,-41.12258]},"properties":{"name":"Penguin","feature_code":"PPL","population":4042}},{"type":"Feature","geometry":{"type":"Point","coordinates":[153.0901,-26.39433]},"properties":{"name":"Noosa Heads","feature_code":"PPL","population":3999}},{"type":"Feature","geometry":{"type":"Point","coordinates":[138.46667,-34.8]},"properties":{"name":"Largs Bay","feature_code":"PPL","population":3990}},{"type":"Feature","geometry":{"type":"Point","coordinates":[151.19836,-33.82344]},"properties":{"name":"St Leonards","feature_code":"PPL","population":3977}},{"type":"Feature","geometry":{"type":"Point","coordinates":[145.69682,-16.78876]},"properties":{"name":"Trinity Beach","feature_code":"PPL","population":3973}},{"type":"Feature","geometry":{"type":"Point","coordinates":[138.59656,-34.85889]},"properties":{"name":"Blair Athol","feature_code":"PPL","population":3969}},{"type":"Feature","geometry":{"type":"Point","coordinates":[115.9999,-31.66905]},"properties":{"name":"Bullsbrook","feature_code":"PPL","population":3954}},{"type":"Feature","geometry":{"type":"Point","coordinates":[115.86714,-32.01594]},"properties":{"name":"Manning","feature_code":"PPL","population":3953}},{"type":"Feature","geometry":{"type":"Point","coordinates":[116,-31.9]},"properties":{"name":"Midland","feature_code":"PPL","population":3936}},{"type":"Feature","geometry":{"type":"Point","coordinates":[117.5584,-33.68787]},"properties":{"name":"Katanning","feature_code":"PPL","population":3934}},{"type":"Feature","geometry":{"type":"Point","coordinates":[134.19147,-19.6497]},"properties":{"name":"Tennant Creek","feature_code":"PPL","population":3889}},{"type":"Feature","geometry":{"type":"Point","coordinates":[138.54326,-35.21895]},"properties":{"name":"McLaren Vale","feature_code":"PPL","population":3853}},{"type":"Feature","geometry":{"type":"Point","coordinates":[151.14726,-33.71345]},"properties":{"name":"North Turramurra","feature_code":"PPL","population":3840}},{"type":"Feature","geometry":{"type":"Point","coordinates":[138.61667,-35.01667]},"properties":{"name":"Blackwood","feature_code":"PPL","population":3799}},{"type":"Feature","geometry":{"type":"Point","coordinates":[153.10427,-27.25608]},"properties":{"name":"Woody Point","feature_code":"PPL","population":3789}},{"type":"Feature","geometry":{"type":"Point","coordinates":[138.61667,-35.05]},"properties":{"name":"Coromandel Valley","feature_code":"PPL","population":3779}},{"type":"Feature","geometry":{"type":"Point","coordinates":[138.51667,-35.15]},"properties":{"name":"Hackham","feature_code":"PPL","population":3765}},{"type":"Feature","geometry":{"type":"Point","coordinates":[151.11667,-33.95]},"properties":{"name":"Bexley","feature_code":"PPL","population":3763}},{"type":"Feature","geometry":{"type":"Point","coordinates":[147.58273,-34.86819]},"properties":{"name":"Junee","feature_code":"PPL","population":3744}},{"type":"Feature","geometry":{"type":"Point","coordinates":[151.06389,-33.99941]},"properties":{"name":"Como","feature_code":"PPL","population":3737}},{"type":"Feature","geometry":{"type":"Point","coordinates":[151.49177,-33.25391]},"properties":{"name":"Kanwal","feature_code":"PPL","population":3681}},{"type":"Feature","geometry":{"type":"Point","coordinates":[145.23865,-38.45231]},"properties":{"name":"Cowes","feature_code":"PPL","population":3678}},{"type":"Feature","geometry":{"type":"Point","coordinates":[138.67707,-34.71944]},"properties":{"name":"Elizabeth","feature_code":"PPL","population":3668}},{"type":"Feature","geometry":{"type":"Point","coordinates":[138.6,-35.58333]},"properties":{"name":"Encounter Bay","feature_code":"PPL","population":3665}},{"type":"Feature","geometry":{"type":"Point","coordinates":[138.91154,-35.0345]},"properties":{"name":"Nairne","feature_code":"PPL","population":3648}},{"type":"Feature","geometry":{"type":"Point","coordinates":[153.11667,-27.5]},"properties":{"name":"Belmont","feature_code":"PPL","population":3648}},{"type":"Feature","geometry":{"type":"Point","coordinates":[138.56667,-35.01667]},"properties":{"name":"Marion","feature_code":"PPL","population":3626}},{"type":"Feature","geometry":{"type":"Point","coordinates":[152.73863,-27.66027]},"properties":{"name":"Yamanto","feature_code":"PPL","population":3624}},{"type":"Feature","geometry":{"type":"Point","coordinates":[152.77828,-27.62849]},"properties":{"name":"Eastern Heights","feature_code":"PPL","population":3608}},{"type":"Feature","geometry":{"type":"Point","coordinates":[138.6,-34.95]},"properties":{"name":"Unley","feature_code":"PPL","population":3585}},{"type":"Feature","geometry":{"type":"Point","coordinates":[146.42458,-41.24641]},"properties":{"name":"Latrobe","feature_code":"PPL","population":3526}},{"type":"Feature","geometry":{"type":"Point","coordinates":[151.35338,-33.43874]},"properties":{"name":"East Gosford","feature_code":"PPL","population":3513}},{"type":"Feature","geometry":{"type":"Point","coordinates":[115.7673,-31.96878]},"properties":{"name":"Swanbourne","feature_code":"PPL","population":3512}},{"type":"Feature","geometry":{"type":"Point","coordinates":[149.85915,-33.70398]},"properties":{"name":"Oberon","feature_code":"PPL","population":3497}},{"type":"Feature","geometry":{"type":"Point","coordinates":[151.2162,-33.84867]},"properties":{"name":"Kirribilli","feature_code":"PPL","population":3483}},{"type":"Feature","geometry":{"type":"Point","coordinates":[138.75,-35]},"properties":{"name":"Bridgewater","feature_code":"PPL","population":3469}},{"type":"Feature","geometry":{"type":"Point","coordinates":[151.0732,-33.93317]},"properties":{"name":"Roselands","feature_code":"PPL","population":3467}},{"type":"Feature","geometry":{"type":"Point","coordinates":[116.0812,-31.91906]},"properties":{"name":"Darlington","feature_code":"PPL","population":3446}},{"type":"Feature","geometry":{"type":"Point","coordinates":[153.09174,-25.90432]},"properties":{"name":"Rainbow Beach","feature_code":"PPL","population":3428}},{"type":"Feature","geometry":{"type":"Point","coordinates":[115.89447,-33.07988]},"properties":{"name":"Harvey","feature_code":"PPL","population":3416}},{"type":"Feature","geometry":{"type":"Point","coordinates":[152.78768,-27.62126]},"properties":{"name":"Silkstone","feature_code":"PPL","population":3413}},{"type":"Feature","geometry":{"type":"Point","coordinates":[151.72063,-27.43305]},"properties":{"name":"Oakey","feature_code":"PPL","population":3400}},{"type":"Feature","geometry":{"type":"Point","coordinates":[147.26256,-43.02814]},"properties":{"name":"Margate","feature_code":"PPL","population":3397}},{"type":"Feature","geometry":{"type":"Point","coordinates":[150.82809,-34.74702]},"properties":{"name":"Gerringong","feature_code":"PPL","population":3395}},{"type":"Feature","geometry":{"type":"Point","coordinates":[151.00886,-33.60177]},"properties":{"name":"Glenorie","feature_code":"PPL","population":3360}},{"type":"Feature","geometry":{"type":"Point","coordinates":[143.81472,-37.58911]},"properties":{"name":"Delacombe","feature_code":"PPL","population":3356}},{"type":"Feature","geometry":{"type":"Point","coordinates":[138.73333,-35.01667]},"properties":{"name":"Aldgate","feature_code":"PPL","population":3343}},{"type":"Feature","geometry":{"type":"Point","coordinates":[151.71142,-33.01178]},"properties":{"name":"Redhead","feature_code":"PPL","population":3337}},{"type":"Feature","geometry":{"type":"Point","coordinates":[152.85,-27.6]},"properties":{"name":"Riverview","feature_code":"PPL","population":3337}},{"type":"Feature","geometry":{"type":"Point","coordinates":[138.52351,-35.0182]},"properties":{"name":"Brighton","feature_code":"PPL","population":3336}},{"type":"Feature","geometry":{"type":"Point","coordinates":[116.009,-32.22099]},"properties":{"name":"Byford","feature_code":"PPL","population":3335}},{"type":"Feature","geometry":{"type":"Point","coordinates":[153.4266,-27.97879]},"properties":{"name":"Main Beach","feature_code":"PPL","population":3324}},{"type":"Feature","geometry":{"type":"Point","coordinates":[152.85,-25.28333]},"properties":{"name":"Scarness","feature_code":"PPL","population":3318}},{"type":"Feature","geometry":{"type":"Point","coordinates":[150.86667,-34.58333]},"properties":{"name":"Shellharbour Village","feature_code":"PPL","population":3304}},{"type":"Feature","geometry":{"type":"Point","coordinates":[115.87351,-32.6298]},"properties":{"name":"Pinjarra","feature_code":"PPL","population":3288}},{"type":"Feature","geometry":{"type":"Point","coordinates":[150.6297,-26.73787]},"properties":{"name":"Chinchilla","feature_code":"PPL","population":3250}},{"type":"Feature","geometry":{"type":"Point","coordinates":[148.66252,-31.71173]},"properties":{"name":"Gilgandra","feature_code":"PPL","population":3245}},{"type":"Feature","geometry":{"type":"Point","coordinates":[151.27446,-33.76108]},"properties":{"name":"Brookvale","feature_code":"PPL","population":3225}},{"type":"Feature","geometry":{"type":"Point","coordinates":[116.0492,-31.95444]},"properties":{"name":"Gooseberry Hill","feature_code":"PPL","population":3209}},{"type":"Feature","geometry":{"type":"Point","coordinates":[138.75,-34.58333]},"properties":{"name":"Willaston","feature_code":"PPL","population":3209}},{"type":"Feature","geometry":{"type":"Point","coordinates":[136.78201,-12.18652]},"properties":{"name":"Nhulunbuy","feature_code":"PPL","population":3202}},{"type":"Feature","geometry":{"type":"Point","coordinates":[123.62864,-17.30295]},"properties":{"name":"Derby","feature_code":"PPL","population":3199}},{"type":"Feature","geometry":{"type":"Point","coordinates":[147.20473,-33.92373]},"properties":{"name":"West Wyalong","feature_code":"PPL","population":3191}},{"type":"Feature","geometry":{"type":"Point","coordinates":[150.15,-26.8]},"properties":{"name":"Westcourt","feature_code":"PPL","population":3177}},{"type":"Feature","geometry":{"type":"Point","coordinates":[145.11667,-37.75]},"properties":{"name":"Darch","feature_code":"PPL","population":3176}},{"type":"Feature","geometry":{"type":"Point","coordinates":[115.08333,-33.58333]},"properties":{"name":"Dunsborough","feature_code":"PPL","population":3168}},{"type":"Feature","geometry":{"type":"Point","coordinates":[144.56025,-37.7008]},"properties":{"name":"Brookfield","feature_code":"PPL","population":3168}},{"type":"Feature","geometry":{"type":"Point","coordinates":[153.06667,-27.33333]},"properties":{"name":"Deagon","feature_code":"PPL","population":3152}},{"type":"Feature","geometry":{"type":"Point","coordinates":[147.14514,-33.08805]},"properties":{"name":"Condobolin","feature_code":"PPL","population":3129}},{"type":"Feature","geometry":{"type":"Point","coordinates":[138.515,-34.98079]},"properties":{"name":"Glenelg","feature_code":"PPL","population":3125}},{"type":"Feature","geometry":{"type":"Point","coordinates":[150.85645,-34.54658]},"properties":{"name":"Lake Illawarra","feature_code":"PPL","population":3122}},{"type":"Feature","geometry":{"type":"Point","coordinates":[153.10141,-30.36459]},"properties":{"name":"Sawtell","feature_code":"PPL","population":3122}},{"type":"Feature","geometry":{"type":"Point","coordinates":[145.4142,-37.99415]},"properties":{"name":"Beaconsfield Upper","feature_code":"PPL","population":3119}},{"type":"Feature","geometry":{"type":"Point","coordinates":[151.65,-32.8]},"properties":{"name":"Beresfield","feature_code":"PPL","population":3117}},{"type":"Feature","geometry":{"type":"Point","coordinates":[115.81083,-31.90066]},"properties":{"name":"Osborne Park","feature_code":"PPL","population":3109}},{"type":"Feature","geometry":{"type":"Point","coordinates":[151.9633,-32.0077]},"properties":{"name":"Gloucester","feature_code":"PPL","population":3103}},{"type":"Feature","geometry":{"type":"Point","coordinates":[115.70657,-32.55717]},"properties":{"name":"Erskine","feature_code":"PPL","population":3099}},{"type":"Feature","geometry":{"type":"Point","coordinates":[149.25367,-33.53233]},"properties":{"name":"Blayney","feature_code":"PPL","population":3090}},{"type":"Feature","geometry":{"type":"Point","coordinates":[144.9722,-37.86017]},"properties":{"name":"St Kilda West","feature_code":"PPL","population":3075}},{"type":"Feature","geometry":{"type":"Point","coordinates":[150.86667,-34.41667]},"properties":{"name":"Keiraville","feature_code":"PPL","population":3073}},{"type":"Feature","geometry":{"type":"Point","coordinates":[138.61064,-33.83325]},"properties":{"name":"Clare","feature_code":"PPL","population":3061}},{"type":"Feature","geometry":{"type":"Point","coordinates":[116.16757,-31.9021]},"properties":{"name":"Mundaring","feature_code":"PPL","population":3058}},{"type":"Feature","geometry":{"type":"Point","coordinates":[149.08333,-35.21667]},"properties":{"name":"Belconnen","feature_code":"PPL","population":3057}},{"type":"Feature","geometry":{"type":"Point","coordinates":[144.95,-37.81014]},"properties":{"name":"West Melbourne","feature_code":"PPL","population":3037}},{"type":"Feature","geometry":{"type":"Point","coordinates":[147.44917,-42.89875]},"properties":{"name":"Rokeby","feature_code":"PPL","population":3026}},{"type":"Feature","geometry":{"type":"Point","coordinates":[151.34399,-33.4244]},"properties":{"name":"Gosford","feature_code":"PPL","population":3021}},{"type":"Feature","geometry":{"type":"Point","coordinates":[149.90401,-37.06322]},"properties":{"name":"Eden","feature_code":"PPL","population":3008}},{"type":"Feature","geometry":{"type":"Point","coordinates":[145.46726,-16.48383]},"properties":{"name":"Port Douglas","feature_code":"PPL","population":3000}},{"type":"Feature","geometry":{"type":"Point","coordinates":[153.4676,-28.2266]},"properties":{"name":"Bilambil","feature_code":"PPL","population":2991}},{"type":"Feature","geometry":{"type":"Point","coordinates":[147.3484,-42.9452]},"properties":{"name":"Taroona","feature_code":"PPL","population":2980}},{"type":"Feature","geometry":{"type":"Point","coordinates":[151.04713,-33.65297]},"properties":{"name":"Galston","feature_code":"PPL","population":2978}},{"type":"Feature","geometry":{"type":"Point","coordinates":[148.38881,-30.95389]},"properties":{"name":"Coonamble","feature_code":"PPL","population":2975}},{"type":"Feature","geometry":{"type":"Point","coordinates":[138.5,-35.18333]},"properties":{"name":"Noarlunga","feature_code":"PPL","population":2975}},{"type":"Feature","geometry":{"type":"Point","coordinates":[151.32732,-33.44378]},"properties":{"name":"Point Clare","feature_code":"PPL","population":2973}},{"type":"Feature","geometry":{"type":"Point","coordinates":[116.13598,-33.96242]},"properties":{"name":"Bridgetown","feature_code":"PPL","population":2971}},{"type":"Feature","geometry":{"type":"Point","coordinates":[152.35,-24.9]},"properties":{"name":"Thabeban","feature_code":"PPL","population":2958}},{"type":"Feature","geometry":{"type":"Point","coordinates":[138.55,-34.95]},"properties":{"name":"Plympton","feature_code":"PPL","population":2955}},{"type":"Feature","geometry":{"type":"Point","coordinates":[151.55412,-33.2339]},"properties":{"name":"Budgewoi","feature_code":"PPL","population":2954}},{"type":"Feature","geometry":{"type":"Point","coordinates":[115.75624,-31.86298]},"properties":{"name":"North Beach","feature_code":"PPL","population":2950}},{"type":"Feature","geometry":{"type":"Point","coordinates":[150.67902,-31.50763]},"properties":{"name":"Quirindi","feature_code":"PPL","population":2923}},{"type":"Feature","geometry":{"type":"Point","coordinates":[149.53201,-32.36253]},"properties":{"name":"Gulgong","feature_code":"PPL","population":2919}},{"type":"Feature","geometry":{"type":"Point","coordinates":[138.55,-34.88333]},"properties":{"name":"Woodville","feature_code":"PPL","population":2915}},{"type":"Feature","geometry":{"type":"Point","coordinates":[147.41232,-19.65921]},"properties":{"name":"Home Hill","feature_code":"PPL","population":2900}},{"type":"Feature","geometry":{"type":"Point","coordinates":[151.66667,-32.95]},"properties":{"name":"Cardiff","feature_code":"PPL","population":2883}},{"type":"Feature","geometry":{"type":"Point","coordinates":[138.73637,-35.01518]},"properties":{"name":"Stirling","feature_code":"PPL","population":2867}},{"type":"Feature","geometry":{"type":"Point","coordinates":[121.76667,-30.86667]},"properties":{"name":"Stoneville","feature_code":"PPL","population":2841}},{"type":"Feature","geometry":{"type":"Point","coordinates":[141.87883,-12.62346]},"properties":{"name":"Weipa","feature_code":"PPL","population":2830}},{"type":"Feature","geometry":{"type":"Point","coordinates":[140.46147,-34.25562]},"properties":{"name":"Barmera","feature_code":"PPL","population":2830}},{"type":"Feature","geometry":{"type":"Point","coordinates":[138.65,-34.85]},"properties":{"name":"Gilles Plains","feature_code":"PPL","population":2823}},{"type":"Feature","geometry":{"type":"Point","coordinates":[151.38084,-33.49757]},"properties":{"name":"Bensville","feature_code":"PPL","population":2816}},{"type":"Feature","geometry":{"type":"Point","coordinates":[149.43999,-35.25652]},"properties":{"name":"Bungendore","feature_code":"PPL","population":2806}},{"type":"Feature","geometry":{"type":"Point","coordinates":[151.2231,-33.79987]},"properties":{"name":"Castlecrag","feature_code":"PPL","population":2804}},{"type":"Feature","geometry":{"type":"Point","coordinates":[149.98148,-33.35709]},"properties":{"name":"Portland","feature_code":"PPL","population":2798}},{"type":"Feature","geometry":{"type":"Point","coordinates":[137.63365,-33.93881]},"properties":{"name":"Wallaroo","feature_code":"PPL","population":2779}},{"type":"Feature","geometry":{"type":"Point","coordinates":[138.91644,-34.33871]},"properties":{"name":"Kapunda","feature_code":"PPL","population":2740}},{"type":"Feature","geometry":{"type":"Point","coordinates":[149.27904,-31.27734]},"properties":{"name":"Coonabarabran","feature_code":"PPL","population":2736}},{"type":"Feature","geometry":{"type":"Point","coordinates":[138.59125,-34.60449]},"properties":{"name":"Lewiston","feature_code":"PPL","population":2724}},